loggingTime(txt),loggingSample(N),identifierForVendor(txt),deviceID(txt),locationTimestamp_since1970(s),locationLatitude(WGS84),locationLongitude(WGS84),locationAltitude(m),locationSpeed(m/s),locationCourse(°),locationVerticalAccuracy(m),locationHorizontalAccuracy(m),locationFloor(Z),locationHeadingTimestamp_since1970(s),locationHeadingX(µT),locationHeadingY(µT),locationHeadingZ(µT),locationTrueHeading(°),locationMagneticHeading(°),locationHeadingAccuracy(°),accelerometerTimestamp_sinceReboot(s),accelerometerAccelerationX(G),accelerometerAccelerationY(G),accelerometerAccelerationZ(G),gyroTimestamp_sinceReboot(s),gyroRotationX(rad/s),gyroRotationY(rad/s),gyroRotationZ(rad/s),motionTimestamp_sinceReboot(s),motionYaw(rad),motionRoll(rad),motionPitch(rad),motionRotationRateX(rad/s),motionRotationRateY(rad/s),motionRotationRateZ(rad/s),motionUserAccelerationX(G),motionUserAccelerationY(G),motionUserAccelerationZ(G),motionAttitudeReferenceFrame(txt),motionQuaternionX(R),motionQuaternionY(R),motionQuaternionZ(R),motionQuaternionW(R),motionGravityX(G),motionGravityY(G),motionGravityZ(G),motionMagneticFieldX(µT),motionMagneticFieldY(µT),motionMagneticFieldZ(µT),motionMagneticFieldCalibrationAccuracy(Z),activityTimestamp_sinceReboot(s),activity(txt),activityActivityConfidence(Z),activityActivityStartDate(txt),pedometerStartDate(txt),pedometerNumberofSteps(N),pedometerDistance(m),pedometerFloorAscended(N),pedometerFloorDescended(N),pedometerEndDate(txt),altimeterTimestamp_sinceReboot(s),altimeterReset(bool),altimeterRelativeAltitude(m),altimeterPressure(kPa),IP_en0(txt),IP_pdp_ip0(txt),deviceOrientation(Z),batteryState(R),batteryLevel(Z),avAudioRecorderPeakPower(dB),avAudioRecorderAveragePower(dB),state(N)
2018-02-25 13:57:59.262 -0500,1,3DCCE5A0-AD64-4006-9610-DD3C35995850,my_iOS_device,1519585077,38.03561144,-78.49833,150.3698,1.27,-1,192,50,-9999,1519585079,33.21048737,35.52507782,5.434387207,307.4088135,317.1844177,15,1434045.164,-0.0006103515625,0.02346801758,-1.005905151,1434045.107,-0.00644058878,-0.008613195598,-0.003154247995,1434045.152,-0.8287704902,-0.003707066587,-0.01442590475,-0.001407537609,-0.003698951565,-0.0001245578751,0.003401496448,-0.000295765698,0.002452552319,XArbitraryCorrectedZVertical,-0.007348672021,0.001207489055,-0.4026038945,0.9153439403,-0.003706672462,0.01442540437,-0.9998890758,33.17741394,35.0881424,5.356384277,2,1434042.695,automotive,0,2018-02-25 13:57:56.783 -0500,null,0,0,0,0,null,1434042.885,0,-0.6394348,99.76372,10.41.3.217,100.110.18.251,5,1,0.61,-38.60054,-39.55358,0
2018-02-25 13:57:59.314 -0500,2,3DCCE5A0-AD64-4006-9610-DD3C35995850,my_iOS_device,1519585077,38.03561144,-78.49833,150.3698,1.27,-1,192,50,-9999,1519585079,33.02285767,35.06513214,5.470275879,307.4042053,317.1798096,15,1434045.224,0.0009918212891,0.01533508301,-0.9953155518,1434045.167,-0.004304733586,-0.009706955857,-0.004228833495,1434045.222,-0.8285593916,-0.003649621929,-0.01451110385,-0.003512602765,0.003879335476,0.0009349999018,0.002581114415,-0.001052343287,0.002482056618,XArbitraryCorrectedZVertical,-0.007376234047,0.001250154106,-0.4025073349,0.9153859615,-0.003649229649,0.01451059431,-0.9998880625,32.96794128,34.9966507,5.350952148,2,1434042.695,automotive,0,2018-02-25 13:57:56.783 -0500,null,0,0,0,0,null,1434042.885,0,-0.6394348,99.76372,10.41.3.217,100.110.18.251,5,1,0.61,-38.60054,-41.45475,0
2018-02-25 13:57:59.391 -0500,3,3DCCE5A0-AD64-4006-9610-DD3C35995850,my_iOS_device,1519585077,38.03561144,-78.49833,150.3698,1.27,-1,192,50,-9999,1519585079,33.03461456,34.90247345,5.406494141,307.3969727,317.1725769,15,1434045.284,-0.001571655273,0.01678466797,-1.004089355,1434045.227,-0.008559399744,-0.003196059624,-0.00102185491,1434045.256,-0.8284607907,-0.003637809485,-0.01455661447,-0.000347379595,-0.002618236002,0.00307134632,0.002203089651,0.001297781244,-0.002065658569,XArbitraryCorrectedZVertical,-0.007394748274,0.001264355262,-0.4024621248,0.9154057503,-0.003637416055,0.01455610059,-0.9998874664,33.03488922,34.88877106,5.366271973,2,1434042.695,automotive,0,2018-02-25 13:57:56.783 -0500,null,0,0,0,0,null,1434042.885,0,-0.6394348,99.76372,10.41.3.217,100.110.18.251,5,1,0.61,-38.60054,-44.57713,0
2018-02-25 13:57:59.434 -0500,4,3DCCE5A0-AD64-4006-9610-DD3C35995850,my_iOS_device,1519585077,38.03561144,-78.49833,150.3698,1.27,-1,192,50,-9999,1519585079,33.02957153,35.23519135,5.546264648,307.3952026,317.1708069,15,1434045.343,-0.0005340576172,0.02313232422,-1.014541626,1434045.286,-0.009640643146,-0.00751517428,-0.00314226377,1434045.326,-0.8283006488,-0.003751766192,-0.01464119091,-0.002450716216,0.001711289631,-0.0001310466323,0.001020031981,0.0002366518602,-0.001853704453,XArbitraryCorrectedZVertical,-0.007456488907,0.001228620531,-0.4023882151,0.915437758,-0.003751355223,0.01464066748,-0.9998857975,33.026474,35.23296356,5.33770752,2,1434042.695,automotive,0,2018-02-25 13:57:56.783 -0500,null,0,0,0,0,null,1434042.885,0,-0.6394348,99.76372,10.41.3.217,100.110.18.251,5,1,0.61,-38.60054,-43.56241,0
2018-02-25 13:57:59.494 -0500,5,3DCCE5A0-AD64-4006-9610-DD3C35995850,my_iOS_device,1519585077,38.03561144,-78.49833,150.3698,1.27,-1,192,50,-9999,1519585079,32.96692657,35.12158966,5.372619629,307.3928223,317.1684265,15,1434045.403,-0.002624511719,0.01892089844,-1.004699707,1434045.346,-0.006403304525,-0.001050084418,-0.00317102591,1434045.396,-0.8281938635,-0.003735968657,-0.01469445926,-0.00351996813,0.0006346562877,-0.001187823014,0.005261435639,-0.001922323368,0.00159406662,XArbitraryCorrectedZVertical,-0.007477758918,0.001246170257,-0.4023392797,0.9154590368,-0.003735556733,0.01469393075,-0.9998850822,33.05254364,35.24008942,5.292053223,2,1434042.695,automotive,0,2018-02-25 13:57:56.783 -0500,null,0,0,0,0,null,1434042.885,0,-0.6394348,99.76372,10.41.3.217,100.110.18.251,5,1,0.61,-38.46247,-44.69105,0
2018-02-25 13:57:59.553 -0500,6,3DCCE5A0-AD64-4006-9610-DD3C35995850,my_iOS_device,1519585077,38.03561144,-78.49833,150.3698,1.27,-1,192,50,-9999,1519585080,33.22731018,35.20017242,5.346069336,307.3867188,317.162323,15,1434045.463,0.00114440918,0.01226806641,-0.9967346191,1434045.406,-0.005362541171,-0.007540207994,-0.004228833495,1434045.43,-0.828091717,-0.003710060263,-0.01473896847,-0.002476423979,-0.003692426253,-0.0001112914179,0.0054338919,-0.0008376780897,0.002997279167,XArbitraryCorrectedZVertical,-0.007492984645,0.001266601146,-0.4022925198,0.9154794216,-0.003709648736,0.01473843493,-0.9998844862,33.15155792,35.1909256,5.458007813,2,1434042.695,automotive,0,2018-02-25 13:57:56.783 -0500,null,0,0,0,0,null,1434042.885,0,-0.6394348,99.76372,10.41.3.217,100.110.18.251,5,1,0.61,-38.46247,-44.42669,0
2018-02-25 13:57:59.634 -0500,7,3DCCE5A0-AD64-4006-9610-DD3C35995850,my_iOS_device,1519585077,38.03561144,-78.49833,150.3698,1.27,-1,192,50,-9999,1519585080,33.08158112,35.22197723,5.295654297,307.3822021,317.1578064,15,1434045.523,0.004058837891,0.01751708984,-1.008728027,1434045.465,-0.007477091077,-0.002124669918,-0.003163835375,1434045.5,-0.8279561187,-0.003688181375,-0.01483342762,-0.0003280192614,-0.000460841693,0.0009429003112,0.002451805165,-3.19E-05,0.002980709076,XArbitraryCorrectedZVertical,-0.007531908341,0.001295106136,-0.4022302926,0.9155064821,-0.003687767312,0.01483288407,-0.9998831749,33.15108109,35.17237091,5.413024902,2,1434042.695,automotive,0,2018-02-25 13:57:56.783 -0500,null,0,0,0,0,null,1434043.906,0,-0.5812988,99.76305,10.41.3.217,100.110.18.251,5,1,0.61,-26.8208,-26.8208,0
2018-02-25 13:57:59.673 -0500,8,3DCCE5A0-AD64-4006-9610-DD3C35995850,my_iOS_device,1519585077,38.03561144,-78.49833,150.3698,1.27,-1,192,50,-9999,1519585080,32.8911438,35.32360077,5.341247559,307.3757019,317.1513062,15,1434045.582,0.0009460449219,0.021484375,-1.014816284,1434045.525,-0.002133724665,-0.001071922339,-0.002122805705,1434045.57,-0.8277007644,-0.003086290787,-0.01374763798,0.02107657678,0.005904396065,-0.0002350583673,0.005451106466,0.0004129512236,0.004020631313,XArbitraryCorrectedZVertical,-0.006914010737,0.001351358253,-0.4021179378,0.915560782,-0.003085994162,0.01374720503,-0.9999007583,33.07538605,35.32678986,5.429382324,2,1434042.695,automotive,0,2018-02-25 13:57:56.783 -0500,null,0,0,0,0,null,1434043.906,0,-0.5812988,99.76305,10.41.3.217,100.110.18.251,5,1,0.61,-21.73576,-24.94234,0
2018-02-25 13:57:59.732 -0500,9,3DCCE5A0-AD64-4006-9610-DD3C35995850,my_iOS_device,1519585077,38.03561144,-78.49833,150.3698,1.27,-1,192,50,-9999,1519585080,33.04959106,35.54158783,5.449523926,307.3728943,317.1484985,15,1434045.642,-0.001312255859,0.02046203613,-1.00189209,1434045.585,-0.002114549906,0.001085770776,-0.004262389325,1434045.639,-0.8275921668,-0.002824342577,-0.01387395749,-0.00672065746,0.001733730081,-0.001167033101,0.001954315929,0.003033225425,0.00311934948,XArbitraryCorrectedZVertical,-0.006919251289,0.001496296492,-0.4020688832,0.9155820012,-0.002824066905,0.01387351286,-0.999899745,32.98991776,35.28574371,5.243469238,2,1434042.695,automotive,0,2018-02-25 13:57:56.783 -0500,null,0,0,0,0,null,1434043.906,0,-0.5812988,99.76305,10.41.3.217,100.110.18.251,5,1,0.61,-21.73576,-26.8418,0
2018-02-25 13:57:59.792 -0500,10,3DCCE5A0-AD64-4006-9610-DD3C35995850,my_iOS_device,1519585077,38.03561144,-78.49833,150.3698,1.27,-1,192,50,-9999,1519585080,32.90897751,34.92972565,5.498840332,307.3701172,317.1457214,15,1434045.702,0,0.01432800293,-0.9967193604,1434045.644,-0.007462177374,3.46E-05,-0.00423602403,1434045.674,-0.8275046309,-0.0026633046,-0.01398320275,-0.006721270736,0.004980702419,0.003097204026,0.005974198692,-0.002660726197,0.002660512924,XArbitraryCorrectedZVertical,-0.00693695806,0.001591677894,-0.4020291567,0.9155991077,-0.002663040999,0.01398274675,-0.9998986721,32.9920578,35.29103851,5.442504883,2,1434042.695,automotive,0,2018-02-25 13:57:56.783 -0500,null,0,0,0,0,null,1434043.906,0,-0.5812988,99.76305,10.41.3.217,100.110.18.251,5,1,0.61,-21.73576,-29.26772,0
2018-02-25 13:57:59.863 -0500,11,3DCCE5A0-AD64-4006-9610-DD3C35995850,my_iOS_device,1519585077,38.03561144,-78.49833,150.3698,1.27,-1,192,50,-9999,1519585080,32.82129669,35.12337494,5.382202148,307.3666992,317.1423035,15,1434045.761,-0.001937866211,0.01655578613,-1.008682251,1434045.704,-0.009631055766,-0.006436327723,-0.00421205558,1434045.744,-0.8273831602,-0.002578455415,-0.01428196979,0.000754755456,0.001693562837,-0.0001316193957,0.005111148581,-0.001647206955,0.00221401453,XArbitraryCorrectedZVertical,-0.007056779228,0.00169015245,-0.4019732475,0.9156225324,-0.002578189597,0.0142814843,-0.9998946786,32.82129669,35.12337494,5.382202148,2,1434042.695,automotive,0,2018-02-25 13:57:56.783 -0500,null,0,0,0,0,null,1434043.906,0,-0.5812988,99.76305,10.41.3.217,100.110.18.251,5,1,0.61,-21.73576,-24.25143,0
2018-02-25 13:57:59.911 -0500,12,3DCCE5A0-AD64-4006-9610-DD3C35995850,my_iOS_device,1519585077,38.03561144,-78.49833,150.3698,1.27,-1,192,50,-9999,1519585080,32.9696579,35.38912201,5.563903809,307.3686829,317.1442871,15,1434045.821,-0.001861572266,0.01992797852,-1.010971069,1434045.764,-0.005356149584,-0.005377721189,-0.00316623222,1434045.814,-0.8273553205,-0.002510987948,-0.01421449765,-0.002455294132,0.001713414676,0.0009486421477,0.00704259146,-0.002708892338,0.002901792526,XArbitraryCorrectedZVertical,-0.007012353744,0.001707380754,-0.4019608796,0.9156282544,-0.002510731574,0.01421401929,-0.9998958111,32.9696579,35.38912201,5.563903809,2,1434042.695,automotive,0,2018-02-25 13:57:56.783 -0500,null,0,0,0,0,null,1434043.906,0,-0.5812988,99.76305,10.41.3.217,100.110.18.251,5,1,0.61,-21.73576,-26.22414,0
2018-02-25 13:57:59.971 -0500,13,3DCCE5A0-AD64-4006-9610-DD3C35995850,my_iOS_device,1519585077,38.03561144,-78.49833,150.3698,1.27,-1,192,50,-9999,1519585080,33.00717926,35.29381561,5.356445313,307.3691406,317.1447449,15,1434045.881,0.001770019531,0.01699829102,-0.9992980957,1434045.823,-0.007481352134,-0.002123072021,-0.00209644041,1434045.848,-0.8273301202,-0.002426217118,-0.01429858011,-0.00246308744,-0.002614357974,-0.002241082257,0.004333315417,0.003005374223,0.002504110336,XArbitraryCorrectedZVertical,-0.007033832371,0.001763000851,-0.4019494653,0.9156330228,-0.002425966784,0.01429809257,-0.9998948574,33.00717926,35.29381561,5.356445313,2,1434042.695,automotive,0,2018-02-25 13:57:56.783 -0500,null,0,0,0,0,null,1434043.906,0,-0.5812988,99.76305,10.41.3.217,100.110.18.251,5,1,0.61,-21.73576,-25.29792,0
2018-02-25 13:58:00.031 -0500,14,3DCCE5A0-AD64-4006-9610-DD3C35995850,my_iOS_device,1519585077,38.03561144,-78.49833,150.3698,1.27,-1,192,50,-9999,1519585080,33.0365448,35.32334137,5.463500977,307.3673401,317.1429443,15,1434045.94,0.001342773438,0.01470947266,-1.000930786,1434045.883,-0.007500526894,-0.008610532436,-0.005284244235,1434045.918,-0.8272321558,-0.002525361171,-0.01450363687,-0.001395414583,0.0006270594895,0.002017126419,0.003532172879,0.004585616291,0.003126502037,XArbitraryCorrectedZVertical,-0.007147721946,0.001758474275,-0.4019038677,0.9156520963,-0.002525092801,0.01450312883,-0.9998916388,33.0365448,35.32334137,5.463500977,2,1434045.878,automotive,2,2018-02-25 13:57:59.967 -0500,null,0,0,0,0,null,1434043.906,0,-0.5812988,99.76305,10.41.3.217,100.110.18.251,5,1,0.61,-21.73576,-26.68341,0
2018-02-25 13:58:00.114 -0500,15,3DCCE5A0-AD64-4006-9610-DD3C35995850,my_iOS_device,1519585077,38.03561144,-78.49833,150.3698,1.27,-1,192,50,-9999,1519585080,33.00416946,35.2634964,5.403442383,307.374176,317.1497803,15,1434046,0.0003051757813,0.01622009277,-1.014175415,1434045.943,-0.001046089676,0.001079911822,-0.004267183015,1434045.988,-0.8272156336,-0.002036035257,-0.01366055001,0.02537349612,0.00803765934,-0.003462735331,0.004233109765,0.004482574761,0.001079559326,XArbitraryCorrectedZVertical,-0.006663420703,0.001813019044,-0.4018996358,0.9156574607,-0.002035843907,0.01366012543,-0.9999046326,32.80736923,35.04914093,5.395507813,2,1434045.878,automotive,2,2018-02-25 13:57:59.967 -0500,null,0,0,0,0,null,1434043.906,0,-0.5812988,99.76305,10.41.3.217,100.110.18.251,5,1,0.61,-21.73576,-30.25377,0
2018-02-25 13:58:00.150 -0500,16,3DCCE5A0-AD64-4006-9610-DD3C35995850,my_iOS_device,1519585077,38.03561144,-78.49833,150.3698,1.27,-1,192,50,-9999,1519585080,32.78622437,35.5827713,5.488647461,307.3830872,317.1586914,15,1434046.06,0.0006256103516,0.01739501953,-1.00428772,1434046.003,0.01819471657,0.0009712548496,-0.006488259364,1434046.057,-0.8273831462,-0.001591774375,-0.01204123753,0.01682168618,0.008085901849,-0.002356347861,0.001164411893,0.004408027977,0.003695130348,XArbitraryCorrectedZVertical,-0.005832638126,0.001691492042,-0.4019804597,0.9156279564,-0.001591658336,0.01204094663,-0.9999262094,32.78622437,35.5827713,5.488647461,2,1434045.878,automotive,2,2018-02-25 13:57:59.967 -0500,null,0,0,0,0,null,1434043.906,0,-0.5812988,99.76305,10.41.3.217,100.110.18.251,5,1,0.61,-21.73576,-31.22743,0
2018-02-25 13:58:00.210 -0500,17,3DCCE5A0-AD64-4006-9610-DD3C35995850,my_iOS_device,1519585077,38.03561144,-78.49833,150.3698,1.27,-1,192,50,-9999,1519585080,32.90493011,35.26743317,5.306762695,307.3823242,317.1579285,15,1434046.119,-0.0007171630859,0.01593017578,-0.9960479736,1434046.062,0.01177436781,-7.24E-05,-0.005389705414,1434046.092,-0.8273733928,-0.001472297501,-0.01189610766,-0.01103318483,-0.003641464747,0.002066741232,0.006583887152,-0.002710036002,0.00502461195,XArbitraryCorrectedZVertical,-0.005742190871,0.001716992352,-0.4019765854,0.9156301022,-0.001472192816,0.01189582702,-0.9999281764,32.82949829,35.06563568,5.361816406,2,1434045.878,automotive,2,2018-02-25 13:57:59.967 -0500,null,0,0,0,0,null,1434043.906,0,-0.5812988,99.76305,10.41.3.217,100.110.18.251,5,1,0.61,-21.73576,-33.74773,0
2018-02-25 13:58:00.272 -0500,18,3DCCE5A0-AD64-4006-9610-DD3C35995850,my_iOS_device,1519585077,38.03561144,-78.49833,150.3698,1.27,-1,192,50,-9999,1519585080,32.97366333,35.04561615,5.399108887,307.3846436,317.1602478,15,1434046.179,-0.001159667969,0.01313781738,-1.003738403,1434046.122,-0.02037531287,-0.01934466953,-0.005202751506,1434046.162,-0.8272741181,-0.001964174138,-0.01254631941,0.002866812982,-0.001555691008,0.001997435931,0.01125662029,-0.0004457710311,0.005076825619,XArbitraryCorrectedZVertical,-0.006138808094,0.001622187207,-0.4019286335,0.9156486988,-0.001964018214,0.01254598983,-0.9999193549,33.10206604,34.97911835,5.384277344,2,1434045.878,automotive,2,2018-02-25 13:57:59.967 -0500,null,0,0,0,0,null,1434043.906,0,-0.5812988,99.76305,10.41.3.217,100.110.18.251,5,1,0.61,-21.73576,-35.86656,0
2018-02-25 13:58:00.330 -0500,19,3DCCE5A0-AD64-4006-9610-DD3C35995850,my_iOS_device,1519585077,38.03561144,-78.49833,150.3698,1.27,-1,192,50,-9999,1519585080,32.96315765,35.01969147,5.528930664,307.3853455,317.1609497,15,1434046.239,0.0005493164063,0.01725769043,-1.014480591,1434046.182,0.001063133907,-0.005416070709,-0.00532978429,1434046.231,-0.8273088368,-0.001991661142,-0.01189605905,0.009313181043,0.003807430156,-0.000176532194,0.007637270726,0.000784275122,0.004123449326,XArbitraryCorrectedZVertical,-0.005846602842,0.001479021972,-0.4019455612,0.9156433344,-0.001991519006,0.01189577859,-0.9999272823,32.85062027,35.04875946,5.363220215,2,1434045.878,automotive,2,2018-02-25 13:57:59.967 -0500,null,0,0,0,0,null,1434043.906,0,-0.5812988,99.76305,10.41.3.217,100.110.18.251,5,1,0.61,-21.73576,-37.66769,0
2018-02-25 13:58:00.389 -0500,20,3DCCE5A0-AD64-4006-9610-DD3C35995850,my_iOS_device,1519585077,38.03561144,-78.49833,150.3698,1.27,-1,192,50,-9999,1519585080,33.02152252,35.11219025,5.324523926,307.3863831,317.1619873,15,1434046.299,0.005966186523,0.01741027832,-1.003890991,1434046.241,0.008581770297,0.004270112492,-0.003250121794,1434046.266,-0.8272628409,-0.001613638456,-0.01147646176,0.01043454092,0.01460661553,-0.0002065484878,0.001720343018,0.006849595346,-0.008154332638,XArbitraryCorrectedZVertical,-0.005578565877,0.00156763033,-0.4019262195,0.9156534672,-0.001613531495,0.01147620939,-0.9999328256,33.04841614,35.14965057,5.571838379,2,1434045.878,automotive,2,2018-02-25 13:57:59.967 -0500,null,0,0,0,0,null,1434043.906,0,-0.5812988,99.76305,10.41.3.217,100.110.18.251,5,1,0.61,-21.73576,-39.79416,0
2018-02-25 13:58:00.449 -0500,21,3DCCE5A0-AD64-4006-9610-DD3C35995850,my_iOS_device,1519585077,38.03561144,-78.49833,150.3698,1.27,-1,192,50,-9999,1519585080,32.98774719,35.25710297,5.310668945,307.3772888,317.1528931,15,1434046.358,0.003158569336,0.01063537598,-0.9937133789,1434046.301,-0.007486678456,-0.003203516475,-0.002094043565,1434046.336,-0.8270862715,-0.001257117024,-0.01153094685,-0.006755540613,-0.003665748984,0.0009786060546,0.002355666133,0.00673407875,-0.008444368839,XArbitraryCorrectedZVertical,-0.005532016512,0.001741316752,-0.4018462896,0.9156885147,-0.001257033087,0.01153069176,-0.9999327064,32.9030304,34.99105072,5.412414551,2,1434045.878,automotive,2,2018-02-25 13:57:59.967 -0500,null,0,0,0,0,null,1434043.906,0,-0.5812988,99.76305,10.41.3.217,100.110.18.251,5,1,0.61,-21.73576,-41.21253,0
2018-02-25 13:58:00.513 -0500,22,3DCCE5A0-AD64-4006-9610-DD3C35995850,my_iOS_device,1519585077,38.03561144,-78.49833,150.3698,1.27,-1,192,50,-9999,1519585080,32.74433899,35.26091766,5.452148438,307.3742981,317.1499023,15,1434046.418,0.0009918212891,0.01121520996,-1.005813599,1434046.361,-0.01606205717,-0.009640909462,-0.00310870794,1434046.405,-0.826951182,-0.001457251925,-0.0118234718,0.006092478056,0.0016663922,0.0009086262435,0.004356319085,0.006273727864,-0.01188123226,XArbitraryCorrectedZVertical,-0.005706274416,0.001708077267,-0.4017834663,0.9157149792,-0.001457149512,0.01182319596,-0.9999290705,32.74433899,35.26091766,5.452148438,2,1434045.878,automotive,2,2018-02-25 13:57:59.967 -0500,null,0,0,0,0,null,1434043.906,0,-0.5812988,99.76305,10.41.3.217,100.110.18.251,5,1,0.61,-21.73576,-40.9704,0
2018-02-25 13:58:00.570 -0500,23,3DCCE5A0-AD64-4006-9610-DD3C35995850,my_iOS_device,1519585077,38.03561144,-78.49833,150.3698,1.27,-1,192,50,-9999,1519585081,32.86076736,35.11194611,5.473266602,307.3705139,317.1461182,15,1434046.478,0.001190185547,0.0181427002,-1.015441895,1434046.42,0.003232012299,0.005384645408,-2.64E-05,1434046.475,-0.8268326391,-0.0009237332733,-0.01100807269,0.01574547775,0.008093680255,-0.000214099884,0.003258271841,0.008157188073,-0.01281738281,XArbitraryCorrectedZVertical,-0.005225864239,0.001788232941,-0.4017317891,0.9157404304,-0.000923677173,0.01100785006,-0.9999389648,32.96655273,34.93286896,5.360229492,2,1434045.878,automotive,2,2018-02-25 13:57:59.967 -0500,null,0,0,0,0,null,1434043.906,0,-0.5812988,99.76305,10.41.3.217,100.110.18.251,5,1,0.61,-22.29304,-42.23528,0
2018-02-25 13:58:00.628 -0500,24,3DCCE5A0-AD64-4006-9610-DD3C35995850,my_iOS_device,1519585077,38.03561144,-78.49833,150.3698,1.27,-1,192,50,-9999,1519585081,32.43508148,35.36426544,5.527099609,307.3682556,317.1438599,15,1434046.537,0.002639770508,0.01751708984,-1.003372192,1434046.48,0.004298341999,0.003214701752,-0.002161155225,1434046.51,-0.8267630401,-0.0008007863483,-0.01098950871,-0.004613474011,-0.002596720587,0.0009659936186,0.003669390455,0.004864593968,-0.002029061317,XArbitraryCorrectedZVertical,-0.005192732438,0.001840616926,-0.4017002583,0.9157543778,-0.0008007379365,0.01098928787,-0.9999393225,32.43508148,35.36426544,5.527099609,2,1434045.878,automotive,2,2018-02-25 13:57:59.967 -0500,null,0,0,0,0,null,1434044.06,0,-0.5812988,99.76305,10.41.3.217,100.110.18.251,5,1,0.61,-23.4076,-42.99106,0
2018-02-25 13:58:00.687 -0500,25,3DCCE5A0-AD64-4006-9610-DD3C35995850,my_iOS_device,1519585077,38.03561144,-78.49833,150.3698,1.27,-1,192,50,-9999,1519585081,32.99633026,35.11855316,5.415222168,307.3659973,317.1416016,15,1434046.597,1.53E-05,0.01170349121,-0.996383667,1434046.54,-0.01073573499,-0.0129115376,-0.003125485855,1434046.58,-0.8266937179,-0.001159069273,-0.01136183196,-0.006794220768,-0.01339414157,-0.001132110367,0.005873960443,0.003927718848,-0.00578725338,XArbitraryCorrectedZVertical,-0.005435232073,0.001751160831,-0.4016670585,0.9157677293,-0.001158994157,0.01136158779,-0.9999347925,32.82653809,35.4597702,5.599243164,2,1434045.878,automotive,2,2018-02-25 13:57:59.967 -0500,null,0,0,0,0,null,1434044.06,0,-0.5812988,99.76305,10.41.3.217,100.110.18.251,5,1,0.61,-25.07943,-41.41315,0
2018-02-25 13:58:00.752 -0500,26,3DCCE5A0-AD64-4006-9610-DD3C35995850,my_iOS_device,1519585077,38.03561144,-78.49833,150.3698,1.27,-1,192,50,-9999,1519585081,32.84294128,35.1244278,5.350646973,307.3733521,317.1489563,15,1434046.657,-0.001846313477,0.01373291016,-1.008666992,1434046.599,-0.008600945057,-0.01508734021,-0.005265069475,1434046.649,-0.8267548217,-0.001238745197,-0.01106812985,0.01359309442,0.005947006866,0.0008657975122,0.003603781341,0.005106412806,-0.006623268127,XArbitraryCorrectedZVertical,-0.005316702183,0.0016558551,-0.4016952515,0.915756166,-0.001238669036,0.0110679036,-0.9999380112,32.84294128,35.1244278,5.350646973,2,1434045.878,automotive,2,2018-02-25 13:57:59.967 -0500,null,0,0,0,0,null,1434044.06,0,-0.5812988,99.76305,10.41.3.217,100.110.18.251,5,1,0.61,-26.19399,-42.54168,0
2018-02-25 13:58:00.807 -0500,27,3DCCE5A0-AD64-4006-9610-DD3C35995850,my_iOS_device,1519585077,38.03561144,-78.49833,150.3698,1.27,-1,192,50,-9999,1519585081,32.76892853,35.00632477,5.439575195,307.3724976,317.1481018,15,1434046.716,0.004867553711,0.01620483398,-1.012817383,1434046.659,0.001070590758,-0.002171541553,-0.003202184895,1434046.684,-0.8267209352,-0.001095285601,-0.01078933318,0.009313272312,0.003807280213,-0.0001691840589,0.003918097354,0.0104205925,-0.01884239912,XArbitraryCorrectedZVertical,-0.005160261877,0.001665457734,-0.4016804695,0.9157636166,-0.001095221611,0.0107891243,-0.9999411702,33.02235413,35.19295502,5.39263916,2,1434045.878,automotive,2,2018-02-25 13:57:59.967 -0500,null,0,0,0,0,null,1434044.06,0,-0.5812988,99.76305,10.41.3.217,100.110.18.251,5,1,0.61,-27.86583,-44.18976,0
2018-02-25 13:58:00.867 -0500,28,3DCCE5A0-AD64-4006-9610-DD3C35995850,my_iOS_device,1519585077,38.03561144,-78.49833,150.3698,1.27,-1,192,50,-9999,1519585081,32.52262497,35.05190277,5.377563477,307.3788757,317.15448,15,1434046.776,0.00178527832,0.0171661377,-1.002548218,1434046.719,-0.01607803613,-0.01288224282,-0.003101517406,1434046.754,-0.8267931915,-0.001529868709,-0.01137357321,-0.002503659111,-0.0134234475,-0.005404276308,0.0001717370469,0.008142663166,-0.016713202,XArbitraryCorrectedZVertical,-0.005514997989,0.001584009617,-0.4017115533,0.9157481194,-0.001529769157,0.01137332805,-0.9999341369,32.52262497,35.05190277,5.377563477,2,1434045.878,automotive,2,2018-02-25 13:57:59.967 -0500,null,0,0,0,0,null,1434044.06,0,-0.5812988,99.76305,10.41.3.217,100.110.18.251,5,1,0.61,-28.98039,-45.52611,0
2018-02-25 13:58:00.926 -0500,29,3DCCE5A0-AD64-4006-9610-DD3C35995850,my_iOS_device,1519585077,38.03561144,-78.49833,150.3698,1.27,-1,192,50,-9999,1519585081,32.66996002,35.38115692,5.332641602,307.5412903,317.3168945,15,1434046.836,0.05731201172,-0.1498413086,-1.02053833,1434046.779,-0.00854661657,-0.02917945712,-0.03618836447,1434046.823,-0.8462742043,-0.002545789919,-0.01199233644,0.04594387114,0.07562273741,-0.2545159161,-0.02499650978,0.01983778551,-0.01135140657,XArbitraryCorrectedZVertical,-0.005989971571,0.001301536919,-0.4106082618,0.9117910862,-0.002545604017,0.0119920494,-0.9999248385,31.85544777,35.5470047,4.989990234,2,1434045.878,automotive,2,2018-02-25 13:57:59.967 -0500,null,0,0,0,0,null,1434044.06,0,-0.5812988,99.76305,10.41.3.217,100.110.18.251,5,1,0.61,-1.730179,-2.945896,0
2018-02-25 13:58:00.994 -0500,30,3DCCE5A0-AD64-4006-9610-DD3C35995850,my_iOS_device,1519585077,38.03561144,-78.49833,150.3698,1.27,-1,192,50,-9999,1519585081,31.8712616,35.67684174,4.835144043,308.5108643,318.2864685,15,1434046.895,-0.001312255859,0.01783752441,-1.010238647,1434046.838,-0.01173175723,0.004386226315,4.31E-05,1434046.893,-0.8464909136,-0.002356143062,-0.01215572513,-0.0003344109282,-0.002623328473,-9.96E-05,0.000189218903,0.0084439395,-0.0130161047,XArbitraryCorrectedZVertical,-0.006025369745,0.001422194298,-0.4107073247,0.9117460847,-0.002355966717,0.01215542573,-0.9999233484,31.49116898,36.03572845,5.362243652,2,1434045.878,automotive,2,2018-02-25 13:57:59.967 -0500,null,0,0,0,0,null,1434044.06,0,-0.5812988,99.76305,10.41.3.217,100.110.18.251,5,1,0.61,-0.1137714,-6.029709,0
2018-02-25 13:58:01.046 -0500,31,3DCCE5A0-AD64-4006-9610-DD3C35995850,my_iOS_device,1519585077,38.03561144,-78.49833,150.3698,1.27,-1,192,50,-9999,1519585081,31.86747932,35.66468048,5.064758301,308.5021973,318.2778015,15,1434046.955,-0.0004577636719,0.01940917969,-1.013397217,1434046.898,-0.008549812364,-0.002117213067,-0.00209164672,1434046.928,-0.8464271442,-0.002327015244,-0.01203322379,-0.007848693058,-0.007981490344,0.002081032842,0.003028749023,0.006018213928,-0.0138232708,XArbitraryCorrectedZVertical,-0.005963588599,0.001410125988,-0.4106785655,0.9117594361,-0.002326844726,0.01203293353,-0.9999248981,31.97879601,35.75978851,4.913757324,2,1434045.878,automotive,2,2018-02-25 13:57:59.967 -0500,null,0,0,0,0,null,1434044.06,0,-0.5812988,99.76305,10.41.3.217,100.110.18.251,5,1,0.61,-0.1137714,-8.260495,0
2018-02-25 13:58:01.105 -0500,32,3DCCE5A0-AD64-4006-9610-DD3C35995850,my_iOS_device,1519585077,38.03561144,-78.49833,150.3698,1.27,-1,192,50,-9999,1519585081,31.92725563,35.68428802,5.064147949,308.4875488,318.2631531,15,1434047.015,0.001800537109,0.01463317871,-0.9953155518,1434046.958,-0.01935372427,-0.02366271892,0.001206411974,1434046.997,-0.846019176,-0.003261606474,-0.01294813115,-0.0003804028966,-0.00585317798,0.007378722541,0.002666234737,0.009757308289,-0.01461553574,XArbitraryCorrectedZVertical,-0.006572818384,0.001170596457,-0.4104878604,0.9118415713,-0.003261327278,0.0129477689,-0.9999108315,31.85397339,35.7781601,5.20489502,2,1434045.878,automotive,2,2018-02-25 13:57:59.967 -0500,null,0,0,0,0,null,1434044.06,0,-0.5812988,99.76305,10.41.3.217,100.110.18.251,5,1,0.61,-0.1137714,-11.59455,0
2018-02-25 13:58:01.165 -0500,33,3DCCE5A0-AD64-4006-9610-DD3C35995850,my_iOS_device,1519585077,38.03561144,-78.49833,150.3698,1.27,-1,192,50,-9999,1519585081,31.97628975,35.85379791,4.952331543,308.4699707,318.245575,15,1434047.075,-0.003463745117,0.01237487793,-0.9964141846,1434047.017,-0.02039342236,-0.01609055299,0.003329217679,1434047.067,-0.8455610591,-0.004024658365,-0.01376557435,-0.008941135369,-0.01121458597,0.004229515325,-0.001682520844,0.008924679831,-0.01800137758,XArbitraryCorrectedZVertical,-0.007102341391,0.0009888625937,-0.410274595,0.9119337201,-0.004024266265,0.01376513951,-0.999897182,31.84071541,35.73188019,5.129516602,2,1434045.878,automotive,2,2018-02-25 13:57:59.967 -0500,null,0,0,0,0,null,1434044.06,0,-0.5812988,99.76305,10.41.3.217,100.110.18.251,5,1,0.61,-0.1137714,-13.82517,0
2018-02-25 13:58:01.233 -0500,34,3DCCE5A0-AD64-4006-9610-DD3C35995850,my_iOS_device,1519585077,38.03561144,-78.49833,150.3698,1.27,-1,192,50,-9999,1519585081,31.99450684,35.79444122,5.080200195,308.4615784,318.2371826,15,1434047.134,-0.002243041992,0.02095031738,-1.013961792,1434047.077,-0.01822241344,-0.01178528677,0.0001078580241,1434047.102,-0.8454771342,-0.004324615853,-0.01410963164,-0.004662299529,-0.01015705802,0.004206857644,0.003362868447,0.003636809066,-0.009828746319,XArbitraryCorrectedZVertical,-0.007320788223,0.000922367326,-0.4102343917,0.9119502902,-0.004324171692,0.01410916355,-0.9998911023,31.99450684,35.79444122,5.080200195,2,1434045.878,automotive,2,2018-02-25 13:57:59.967 -0500,null,0,0,0,0,null,1434044.06,0,-0.5812988,99.76305,10.41.3.217,100.110.18.251,5,1,0.61,-0.1137714,-17.02457,0
2018-02-25 13:58:01.285 -0500,35,3DCCE5A0-AD64-4006-9610-DD3C35995850,my_iOS_device,1519585077,38.03561144,-78.49833,150.3698,1.27,-1,192,50,-9999,1519585081,32.02272034,35.64086151,4.99029541,308.4528809,318.2284851,15,1434047.194,-0.002655029297,0.01837158203,-1.009124756,1434047.137,-0.01177436781,-0.004257329319,6.23E-05,1434047.172,-0.8452788257,-0.004281130444,-0.01444281114,0.0007400349714,-0.001549780834,-0.0001046243124,0.003960235976,0.003715649247,-0.009222984314,XArbitraryCorrectedZVertical,-0.007463888265,0.001009801053,-0.4101433158,0.9119899869,-0.004280671012,0.01444230881,-0.9998865128,31.92241096,35.62673187,5.000671387,2,1434047.152,automotive,2,2018-02-25 13:58:01.241 -0500,null,0,0,0,0,null,1434044.06,0,-0.5812988,99.76305,10.41.3.217,100.110.18.251,5,1,0.61,-0.1137714,-18.85901,0
2018-02-25 13:58:01.344 -0500,36,3DCCE5A0-AD64-4006-9610-DD3C35995850,my_iOS_device,1519585077,38.03561144,-78.49833,150.3698,1.27,-1,192,50,-9999,1519585081,31.93566704,35.85837555,4.971069336,308.4487915,318.2243958,15,1434047.254,-0.001098632813,0.01409912109,-0.994934082,1434047.196,-0.005354019055,-0.003213636487,-0.00103623598,1434047.241,-0.8451790716,-0.004081076097,-0.01452258135,0.005044062622,0.003828520654,-0.001205509063,-0.0006953664124,0.002796654589,-0.009055435658,XArbitraryCorrectedZVertical,-0.007459292654,0.001117012347,-0.4100983739,0.9120101333,-0.004080634564,0.014522071,-0.9998862147,31.93566704,35.85837555,4.971069336,2,1434047.152,automotive,2,2018-02-25 13:58:01.241 -0500,null,0,0,0,0,null,1434044.06,0,-0.5812988,99.76305,10.41.3.217,100.110.18.251,5,1,0.61,-0.1137714,-21.94932,0
2018-02-25 13:58:01.404 -0500,37,3DCCE5A0-AD64-4006-9610-DD3C35995850,my_iOS_device,1519585077,38.03561144,-78.49833,150.3698,1.27,-1,192,50,-9999,1519585081,31.84085464,35.84760284,4.875793457,308.4477234,318.2233276,15,1434047.313,0.0004272460938,0.01271057129,-1.001312256,1434047.256,-0.007498396365,-0.006446447735,-0.003154247995,1434047.311,-0.8451179882,-0.003841661552,-0.0144080514,-0.0003086104989,0.001696479972,-0.001175813144,0.002635808894,0.001431070268,-0.008076250553,XArbitraryCorrectedZVertical,-0.00735801179,0.001202475862,-0.410071671,0.9120228887,-0.003841253463,0.01440755278,-0.9998888373,31.84085464,35.84760284,4.875793457,2,1434047.152,automotive,2,2018-02-25 13:58:01.241 -0500,null,0,0,0,0,null,1434044.06,0,-0.5812988,99.76305,10.41.3.217,100.110.18.251,5,1,0.61,-0.1137714,-24.03845,0
2018-02-25 13:58:01.470 -0500,38,3DCCE5A0-AD64-4006-9610-DD3C35995850,my_iOS_device,1519585077,38.03561144,-78.49833,150.3698,1.27,-1,192,50,-9999,1519585081,31.9154377,35.79627228,4.897705078,308.4492493,318.2248535,15,1434047.373,-0.00129699707,0.01979064941,-1.013320923,1434047.316,-0.010699516,-0.006430468768,-0.00420726189,1434047.346,-0.8451253125,-0.003831682335,-0.0144528413,0.001814555377,0.0006073652767,0.0009520973545,-0.001753444085,0.006925225258,-0.01387518644,XArbitraryCorrectedZVertical,-0.007376385853,0.001216237783,-0.4100749493,0.9120212197,-0.003831272712,0.01445233822,-0.9998882413,31.9154377,35.79627228,4.897705078,2,1434047.152,automotive,2,2018-02-25 13:58:01.241 -0500,null,0,0,0,0,null,1434044.06,0,-0.5812988,99.76305,10.41.3.217,100.110.18.251,5,1,0.61,-0.1137714,-27.13228,0
2018-02-25 13:58:01.523 -0500,39,3DCCE5A0-AD64-4006-9610-DD3C35995850,my_iOS_device,1519585077,38.03561144,-78.49833,150.3698,1.27,-1,192,50,-9999,1519585081,31.94378662,35.7206192,4.886962891,308.452179,318.2277832,15,1434047.433,-0.0001983642578,0.02049255371,-1.007720947,1434047.375,0.00539343384,0.008611065069,-0.002177933139,1434047.415,-0.8451604658,-0.002922627447,-0.01379812726,0.02224077657,0.02534676343,-0.000265880255,-0.001884173602,0.007289957255,-0.01125365496,XArbitraryCorrectedZVertical,-0.006891414989,0.001496649464,-0.4100956917,0.9120151997,-0.002922345186,0.01379768923,-0.9999005198,31.94378662,35.7206192,4.886962891,2,1434047.152,automotive,2,2018-02-25 13:58:01.241 -0500,null,0,0,0,0,null,1434045.006,0,-0.636795,99.76369,10.41.3.217,100.110.18.251,5,1,0.61,-0.1137714,-30.09484,0
2018-02-25 13:58:01.583 -0500,40,3DCCE5A0-AD64-4006-9610-DD3C35995850,my_iOS_device,1519585077,38.03561144,-78.49833,150.3698,1.27,-1,192,50,-9999,1519585082,31.86131859,35.72527313,4.916381836,308.4551392,318.2307434,15,1434047.492,-0.000732421875,0.01007080078,-0.9908599854,1434047.435,0.02784494709,0.009565275687,-0.004415787403,1434047.485,-0.8451319348,-0.002443089395,-0.01187988169,0.01462644339,-0.0005417144857,0.001964209368,-0.000990313245,0.005179723725,-0.01258575916,XArbitraryCorrectedZVertical,-0.005918374751,0.001321888762,-0.4100879133,0.9120258093,-0.002442914527,0.01187960245,-0.9999264479,31.91881752,35.66957855,4.915344238,2,1434047.152,automotive,2,2018-02-25 13:58:01.241 -0500,null,0,0,0,0,null,1434045.006,0,-0.636795,99.76369,10.41.3.217,100.110.18.251,5,1,0.61,-0.1137714,-31.88692,0
2018-02-25 13:58:01.643 -0500,41,3DCCE5A0-AD64-4006-9610-DD3C35995850,my_iOS_device,1519585077,38.03561144,-78.49833,150.3698,1.27,-1,192,50,-9999,1519585082,31.89873505,35.60456085,4.942138672,308.4511719,318.2267761,15,1434047.552,-0.001907348633,0.01470947266,-1.005432129,1434047.495,-0.007493070043,-0.00536600328,-0.00315664484,1434047.52,-0.8450706042,-0.002469768028,-0.01188732376,-0.001395724248,-0.0004561683163,0.0009702709503,0.002011827193,-0.000778645277,-0.00716906786,XArbitraryCorrectedZVertical,-0.00592727866,0.00131106691,-0.4100598395,0.9120384455,-0.002469591098,0.01188704371,-0.9999262691,31.94514465,35.66316986,4.939880371,2,1434047.152,automotive,2,2018-02-25 13:58:01.241 -0500,null,0,0,0,0,null,1434045.006,0,-0.636795,99.76369,10.41.3.217,100.110.18.251,5,1,0.61,-0.1137714,-34.63931,0
2018-02-25 13:58:01.713 -0500,42,3DCCE5A0-AD64-4006-9610-DD3C35995850,my_iOS_device,1519585077,38.03561144,-78.49833,150.3698,1.27,-1,192,50,-9999,1519585082,31.9689846,35.54808807,5.025268555,308.4523315,318.2279358,15,1434047.612,-0.00422668457,0.0198059082,-1.012619019,1434047.555,-0.02358069356,-0.01932709266,-0.005188370436,1434047.589,-0.8450418284,-0.002970071989,-0.01245558923,-0.002462113742,-0.001532166265,-0.001161061693,0.006204700097,-0.0004618586972,-0.002111375332,XArbitraryCorrectedZVertical,-0.006289010867,0.001199343824,-0.4100441337,0.9120432138,-0.002969837282,0.0124552669,-0.9999180436,31.79766083,35.66649628,5.28112793,2,1434047.152,automotive,2,2018-02-25 13:58:01.241 -0500,null,0,0,0,0,null,1434045.006,0,-0.636795,99.76369,10.41.3.217,100.110.18.251,5,1,0.61,-0.1137714,-36.85201,0
2018-02-25 13:58:01.762 -0500,43,3DCCE5A0-AD64-4006-9610-DD3C35995850,my_iOS_device,1519585077,38.03561144,-78.49833,150.3698,1.27,-1,192,50,-9999,1519585082,31.90546799,35.85871124,5.204467773,308.4559326,318.2315369,15,1434047.671,0.001693725586,0.0122833252,-0.9952545166,1434047.614,0.008587096619,0.005350556946,-0.003252518639,1434047.659,-0.8450658896,-0.002818313649,-0.01116141393,0.02638538368,-0.002772624604,-0.002355020493,0.001597431023,-0.003638599068,-0.004964351654,XArbitraryCorrectedZVertical,-0.00566771673,0.0010032719,-0.4100579917,0.9120412469,-0.002818134381,0.01116118208,-0.9999337196,31.81339073,35.65488434,5.002502441,2,1434047.152,automotive,2,2018-02-25 13:58:01.241 -0500,null,0,0,0,0,null,1434045.006,0,-0.636795,99.76369,10.41.3.217,100.110.18.251,5,1,0.61,-0.1137714,-25.93986,0
2018-02-25 13:58:01.822 -0500,44,3DCCE5A0-AD64-4006-9610-DD3C35995850,my_iOS_device,1519585077,38.03561144,-78.49833,150.3698,1.27,-1,192,50,-9999,1519585082,31.46947861,35.7027359,5.104125977,308.45755,318.2331543,15,1434047.731,0.002716064453,0.009384155273,-0.9961700439,1434047.674,0.004249339835,-0.007591340687,-0.00320458174,1434047.729,-0.8450386183,-0.003223370633,-0.01148173098,-0.01857465506,-0.01548471209,0.003195781028,0.005511971191,-0.00107498467,-0.0004525780678,XArbitraryCorrectedZVertical,-0.005896846764,0.0008841535309,-0.410043776,0.9120463729,-0.003223152598,0.01148147881,-0.9999288917,31.48308372,36.01563263,5.020751953,2,1434047.152,automotive,2,2018-02-25 13:58:01.241 -0500,null,0,0,0,0,null,1434045.006,0,-0.636795,99.76369,10.41.3.217,100.110.18.251,5,1,0.61,-0.1137714,-27.69416,0
2018-02-25 13:58:01.881 -0500,45,3DCCE5A0-AD64-4006-9610-DD3C35995850,my_iOS_device,1519585077,38.03561144,-78.49833,150.3698,1.27,-1,192,50,-9999,1519585082,31.23107147,35.53574371,4.842468262,308.454071,318.2296753,15,1434047.791,-0.003707885742,0.01455688477,-1.014984131,1434047.734,-0.02572613613,-0.01931217896,-0.003043993126,1434047.764,-0.8450146305,-0.003477812577,-0.01164839702,0.003966848366,0.003837948665,0.0009125322104,-0.00108480826,0.001764342189,-0.0065741539,XArbitraryCorrectedZVertical,-0.006025025621,0.000802221708,-0.4100317657,0.9120509624,-0.003477569669,0.0116481334,-0.9999260902,31.3249054,35.87401581,4.907836914,2,1434047.152,automotive,2,2018-02-25 13:58:01.241 -0500,null,0,0,0,0,null,1434045.006,0,-0.636795,99.76369,10.41.3.217,100.110.18.251,5,1,0.61,-0.6710503,-24.88548,0
2018-02-25 13:58:01.942 -0500,46,3DCCE5A0-AD64-4006-9610-DD3C35995850,my_iOS_device,1519585077,38.03561144,-78.49833,150.3698,1.27,-1,192,50,-9999,1519585082,31.64739799,36.20935822,5.338806152,308.4539185,318.2295227,15,1434047.851,-0.001113891602,0.01557922363,-1.01083374,1434047.793,0.02439135979,-0.0130553483,0.02980556629,1434047.764,-0.8450146305,-0.003477812577,-0.01164839702,0.003966848366,0.003837948665,0.0009125322104,-0.00108480826,0.001764342189,-0.0065741539,XArbitraryCorrectedZVertical,-0.006025025621,0.000802221708,-0.4100317657,0.9120509624,-0.003477569669,0.0116481334,-0.9999260902,31.3249054,35.87401581,4.907836914,2,1434047.152,automotive,2,2018-02-25 13:58:01.241 -0500,null,0,0,0,0,null,1434045.006,0,-0.636795,99.76369,10.41.3.217,100.110.18.251,5,1,0.61,-0.1138186,-12.75604,0
2018-02-25 13:58:02.001 -0500,47,3DCCE5A0-AD64-4006-9610-DD3C35995850,my_iOS_device,1519585077,38.03561144,-78.49833,150.3698,1.27,-1,192,50,-9999,1519585082,31.6369648,35.67319489,5.287109375,308.451355,318.2269592,15,1434047.91,4.58E-05,0.01306152344,-0.9925537109,1434047.853,-0.01817447654,-0.006391053984,-0.005241101025,1434047.764,-0.8450146305,-0.003477812577,-0.01164839702,0.003966848366,0.003837948665,0.0009125322104,-0.00108480826,0.001764342189,-0.0065741539,XArbitraryCorrectedZVertical,-0.006025025621,0.000802221708,-0.4100317657,0.9120509624,-0.003477569669,0.0116481334,-0.9999260902,31.3249054,35.87401581,4.907836914,2,1434047.152,automotive,2,2018-02-25 13:58:01.241 -0500,null,0,0,0,0,null,1434045.006,0,-0.636795,99.76369,10.41.3.217,100.110.18.251,5,1,0.61,-0.1138186,-14.9534,0
2018-02-25 13:58:02.060 -0500,48,3DCCE5A0-AD64-4006-9610-DD3C35995850,my_iOS_device,1519585077,38.03561144,-78.49833,150.3698,1.27,-1,192,50,-9999,1519585082,31.77559662,35.62407684,5.336120605,308.4416199,318.2172241,15,1434047.97,-0.004730224609,0.01350402832,-0.9986724854,1434047.913,-0.03638943313,-0.0149318116,-0.003005643606,1434047.764,-0.8450146305,-0.003477812577,-0.01164839702,0.003966848366,0.003837948665,0.0009125322104,-0.00108480826,0.001764342189,-0.0065741539,XArbitraryCorrectedZVertical,-0.006025025621,0.000802221708,-0.4100317657,0.9120509624,-0.003477569669,0.0116481334,-0.9999260902,31.3249054,35.87401581,4.907836914,2,1434047.152,automotive,2,2018-02-25 13:58:01.241 -0500,null,0,0,0,0,null,1434045.006,0,-0.636795,99.76369,10.41.3.217,100.110.18.251,5,1,0.61,-0.1138186,-18.07193,0
2018-02-25 13:58:02.120 -0500,49,3DCCE5A0-AD64-4006-9610-DD3C35995850,my_iOS_device,1519585077,38.03561144,-78.49833,150.3698,1.27,-1,192,50,-9999,1519585082,31.8797245,35.5785141,4.983886719,308.4377747,318.2133789,15,1434048.03,-0.004913330078,0.01672363281,-1.011505127,1434047.972,-0.03956179063,-0.00734952566,-0.001940645486,1434047.764,-0.8450146305,-0.003477812577,-0.01164839702,0.003966848366,0.003837948665,0.0009125322104,-0.00108480826,0.001764342189,-0.0065741539,XArbitraryCorrectedZVertical,-0.006025025621,0.000802221708,-0.4100317657,0.9120509624,-0.003477569669,0.0116481334,-0.9999260902,31.3249054,35.87401581,4.907836914,2,1434047.152,automotive,2,2018-02-25 13:58:01.241 -0500,null,0,0,0,0,null,1434045.006,0,-0.636795,99.76369,10.41.3.217,100.110.18.251,5,1,0.61,-0.1138186,-19.68675,0
2018-02-25 13:58:02.182 -0500,50,3DCCE5A0-AD64-4006-9610-DD3C35995850,my_iOS_device,1519585077,38.03561144,-78.49833,150.3698,1.27,-1,192,50,-9999,1519585082,32.07409668,35.67784882,4.97857666,308.4377747,318.2133789,15,1434048.089,0.001892089844,0.0203704834,-1.010482788,1434048.032,-0.008572182917,-0.007521033234,-0.00314705746,1434047.764,-0.8450146305,-0.003477812577,-0.01164839702,0.003966848366,0.003837948665,0.0009125322104,-0.00108480826,0.001764342189,-0.0065741539,XArbitraryCorrectedZVertical,-0.006025025621,0.000802221708,-0.4100317657,0.9120509624,-0.003477569669,0.0116481334,-0.9999260902,31.3249054,35.87401581,4.907836914,2,1434047.152,automotive,2,2018-02-25 13:58:01.241 -0500,null,0,0,0,0,null,1434045.006,0,-0.636795,99.76369,10.41.3.217,100.110.18.251,5,1,0.61,-0.1138186,-22.93651,0
2018-02-25 13:58:02.240 -0500,51,3DCCE5A0-AD64-4006-9610-DD3C35995850,my_iOS_device,1519585077,38.03561144,-78.49833,150.3698,1.27,-1,192,50,-9999,1519585082,31.8959446,35.76311493,5.158874512,308.4377747,318.2133789,15,1434048.149,0.0002593994141,0.01519775391,-0.9992218018,1434048.092,-0.006412891905,-0.002128930975,-0.0021012341,1434047.764,-0.8450146305,-0.003477812577,-0.01164839702,0.003966848366,0.003837948665,0.0009125322104,-0.00108480826,0.001764342189,-0.0065741539,XArbitraryCorrectedZVertical,-0.006025025621,0.000802221708,-0.4100317657,0.9120509624,-0.003477569669,0.0116481334,-0.9999260902,31.3249054,35.87401581,4.907836914,2,1434047.152,automotive,2,2018-02-25 13:58:01.241 -0500,null,0,0,0,0,null,1434045.006,0,-0.636795,99.76369,10.41.3.217,100.110.18.251,5,1,0.61,-0.1138186,-25.06875,0
2018-02-25 13:58:02.299 -0500,52,3DCCE5A0-AD64-4006-9610-DD3C35995850,my_iOS_device,1519585077,38.03561144,-78.49833,150.3698,1.27,-1,192,50,-9999,1519585082,31.82116127,35.79232025,5.167419434,308.4408264,318.2164307,15,1434048.209,-0.00114440918,0.01058959961,-0.9986877441,1434048.152,-0.00855620395,-0.004279699872,-0.003154247995,1434047.764,-0.8450146305,-0.003477812577,-0.01164839702,0.003966848366,0.003837948665,0.0009125322104,-0.00108480826,0.001764342189,-0.0065741539,XArbitraryCorrectedZVertical,-0.006025025621,0.000802221708,-0.4100317657,0.9120509624,-0.003477569669,0.0116481334,-0.9999260902,31.3249054,35.87401581,4.907836914,2,1434047.152,automotive,2,2018-02-25 13:58:01.241 -0500,null,0,0,0,0,null,1434045.006,0,-0.636795,99.76369,10.41.3.217,100.110.18.251,5,1,0.61,-0.1138186,-28.19614,0
2018-02-25 13:58:02.359 -0500,53,3DCCE5A0-AD64-4006-9610-DD3C35995850,my_iOS_device,1519585077,38.03561144,-78.49833,150.3698,1.27,-1,192,50,-9999,1519585082,31.79046249,35.89014435,5.233398438,308.4414063,318.2170105,15,1434048.268,-0.003494262695,0.01878356934,-1.010299683,1434048.211,-0.01070803811,-0.006427272975,-0.00207247196,1434047.764,-0.8450146305,-0.003477812577,-0.01164839702,0.003966848366,0.003837948665,0.0009125322104,-0.00108480826,0.001764342189,-0.0065741539,XArbitraryCorrectedZVertical,-0.006025025621,0.000802221708,-0.4100317657,0.9120509624,-0.003477569669,0.0116481334,-0.9999260902,31.3249054,35.87401581,4.907836914,2,1434047.152,automotive,2,2018-02-25 13:58:01.241 -0500,null,0,0,0,0,null,1434045.006,0,-0.636795,99.76369,10.41.3.217,100.110.18.251,5,1,0.61,-0.1138186,-31.27081,0
2018-02-25 13:58:02.423 -0500,54,3DCCE5A0-AD64-4006-9610-DD3C35995850,my_iOS_device,1519585077,38.03561144,-78.49833,150.3698,1.27,-1,192,50,-9999,1519585082,31.98879051,35.58446503,5.007568359,308.4436035,318.2192078,15,1434048.328,-0.001205444336,0.02275085449,-1.008956909,1434048.271,-0.009592706246,0.002208825808,-0.003163835375,1434047.764,-0.8450146305,-0.003477812577,-0.01164839702,0.003966848366,0.003837948665,0.0009125322104,-0.00108480826,0.001764342189,-0.0065741539,XArbitraryCorrectedZVertical,-0.006025025621,0.000802221708,-0.4100317657,0.9120509624,-0.003477569669,0.0116481334,-0.9999260902,31.3249054,35.87401581,4.907836914,2,1434047.152,automotive,2,2018-02-25 13:58:01.241 -0500,null,0,0,0,0,null,1434045.006,0,-0.636795,99.76369,10.41.3.217,100.110.18.251,5,1,0.61,-0.1138186,-33.15718,0
2018-02-25 13:58:02.478 -0500,55,3DCCE5A0-AD64-4006-9610-DD3C35995850,my_iOS_device,1519585077,38.03561144,-78.49833,150.3698,1.27,-1,192,50,-9999,1519585082,31.78868484,35.8613205,5.129577637,308.4457092,318.2213135,15,1434048.388,-0.002166748047,0.01640319824,-0.9948577881,1434048.331,-0.004298341999,-0.007544469052,-0.00316623222,1434047.764,-0.8450146305,-0.003477812577,-0.01164839702,0.003966848366,0.003837948665,0.0009125322104,-0.00108480826,0.001764342189,-0.0065741539,XArbitraryCorrectedZVertical,-0.006025025621,0.000802221708,-0.4100317657,0.9120509624,-0.003477569669,0.0116481334,-0.9999260902,31.3249054,35.87401581,4.907836914,2,1434047.152,automotive,2,2018-02-25 13:58:01.241 -0500,null,0,0,0,0,null,1434045.952,0,-0.636795,99.76369,10.41.3.217,100.110.18.251,5,1,0.61,-0.1138186,-35.74401,0
2018-02-25 13:58:02.538 -0500,56,3DCCE5A0-AD64-4006-9610-DD3C35995850,my_iOS_device,1519585077,38.03561144,-78.49833,150.3698,1.27,-1,192,50,-9999,1519585083,31.94864464,35.88201141,5.223632813,308.4487915,318.2243958,15,1434048.447,-0.002487182617,0.01147460938,-1.002532959,1434048.39,-0.008599879792,-0.01400529786,-0.004200071355,1434047.764,-0.8450146305,-0.003477812577,-0.01164839702,0.003966848366,0.003837948665,0.0009125322104,-0.00108480826,0.001764342189,-0.0065741539,XArbitraryCorrectedZVertical,-0.006025025621,0.000802221708,-0.4100317657,0.9120509624,-0.003477569669,0.0116481334,-0.9999260902,31.3249054,35.87401581,4.907836914,2,1434047.152,automotive,2,2018-02-25 13:58:01.241 -0500,null,0,0,0,0,null,1434045.952,0,-0.636795,99.76369,10.41.3.217,100.110.18.251,5,1,0.61,-0.1138186,-37.18366,0
2018-02-25 13:58:02.598 -0500,57,3DCCE5A0-AD64-4006-9610-DD3C35995850,my_iOS_device,1519585077,38.03561144,-78.49833,150.3698,1.27,-1,192,50,-9999,1519585083,31.89642906,35.82245636,5.054931641,308.448761,318.2243652,15,1434048.507,-0.00178527832,0.02043151855,-1.011611938,1434048.45,-0.006390521352,0.003274889192,-0.00104582336,1434047.764,-0.8450146305,-0.003477812577,-0.01164839702,0.003966848366,0.003837948665,0.0009125322104,-0.00108480826,0.001764342189,-0.0065741539,XArbitraryCorrectedZVertical,-0.006025025621,0.000802221708,-0.4100317657,0.9120509624,-0.003477569669,0.0116481334,-0.9999260902,31.3249054,35.87401581,4.907836914,2,1434047.152,automotive,2,2018-02-25 13:58:01.241 -0500,null,0,0,0,0,null,1434045.952,0,-0.636795,99.76369,10.41.3.217,100.110.18.251,5,1,0.61,-0.1138186,-39.918,0
2018-02-25 13:58:02.661 -0500,58,3DCCE5A0-AD64-4006-9610-DD3C35995850,my_iOS_device,1519585077,38.03561144,-78.49833,150.3698,1.27,-1,192,50,-9999,1519585083,31.81420135,35.8817215,5.227294922,308.4497986,318.2254028,15,1434048.567,-0.00260925293,0.0202331543,-1.006912231,1434048.51,-0.008554073421,-0.00211561517,-0.001024251755,1434047.764,-0.8450146305,-0.003477812577,-0.01164839702,0.003966848366,0.003837948665,0.0009125322104,-0.00108480826,0.001764342189,-0.0065741539,XArbitraryCorrectedZVertical,-0.006025025621,0.000802221708,-0.4100317657,0.9120509624,-0.003477569669,0.0116481334,-0.9999260902,31.3249054,35.87401581,4.907836914,2,1434047.152,automotive,2,2018-02-25 13:58:01.241 -0500,null,0,0,0,0,null,1434045.952,0,-0.636795,99.76369,10.41.3.217,100.110.18.251,5,1,0.61,-0.1138186,-42.33021,0
2018-02-25 13:58:02.717 -0500,59,3DCCE5A0-AD64-4006-9610-DD3C35995850,my_iOS_device,1519585077,38.03561144,-78.49833,150.3698,1.27,-1,192,50,-9999,1519585083,31.89950752,36.52138519,5.352905273,308.4522095,318.2278137,15,1434048.627,0.003631591797,0.01039123535,-0.995223999,1434048.569,-0.006425675078,-0.006453904586,-0.00422643665,1434047.764,-0.8450146305,-0.003477812577,-0.01164839702,0.003966848366,0.003837948665,0.0009125322104,-0.00108480826,0.001764342189,-0.0065741539,XArbitraryCorrectedZVertical,-0.006025025621,0.000802221708,-0.4100317657,0.9120509624,-0.003477569669,0.0116481334,-0.9999260902,31.3249054,35.87401581,4.907836914,2,1434047.152,automotive,2,2018-02-25 13:58:01.241 -0500,null,0,0,0,0,null,1434045.952,0,-0.636795,99.76369,10.41.3.217,100.110.18.251,5,1,0.61,-0.1138186,-44.32398,0
2018-02-25 13:58:02.777 -0500,60,3DCCE5A0-AD64-4006-9610-DD3C35995850,my_iOS_device,1519585077,38.03561144,-78.49833,150.3698,1.27,-1,192,50,-9999,1519585083,31.81826782,36.40444183,5.301513672,308.4571838,318.2327881,15,1434048.686,-0.001113891602,0.01722717285,-1.005722046,1434048.629,-0.00855620395,-0.004279699872,-0.003154247995,1434047.764,-0.8450146305,-0.003477812577,-0.01164839702,0.003966848366,0.003837948665,0.0009125322104,-0.00108480826,0.001764342189,-0.0065741539,XArbitraryCorrectedZVertical,-0.006025025621,0.000802221708,-0.4100317657,0.9120509624,-0.003477569669,0.0116481334,-0.9999260902,31.3249054,35.87401581,4.907836914,2,1434047.152,automotive,2,2018-02-25 13:58:01.241 -0500,null,0,0,0,0,null,1434045.952,0,-0.636795,99.76369,10.41.3.217,100.110.18.251,5,1,0.61,-0.1138186,-46.51336,0
2018-02-25 13:58:02.836 -0500,61,3DCCE5A0-AD64-4006-9610-DD3C35995850,my_iOS_device,1519585077,38.03561144,-78.49833,150.3698,1.27,-1,192,50,-9999,1519585083,31.74486732,35.9933548,5.137145996,308.4616394,318.2372437,15,1434048.746,-0.003112792969,0.02198791504,-1.015792847,1434048.689,-0.0096150768,-0.00319499436,-0.004219246115,1434047.764,-0.8450146305,-0.003477812577,-0.01164839702,0.003966848366,0.003837948665,0.0009125322104,-0.00108480826,0.001764342189,-0.0065741539,XArbitraryCorrectedZVertical,-0.006025025621,0.000802221708,-0.4100317657,0.9120509624,-0.003477569669,0.0116481334,-0.9999260902,31.3249054,35.87401581,4.907836914,2,1434047.152,automotive,2,2018-02-25 13:58:01.241 -0500,null,0,0,0,0,null,1434045.952,0,-0.636795,99.76369,10.41.3.217,100.110.18.251,5,1,0.61,-0.6710975,-47.54555,0
2018-02-25 13:58:02.904 -0500,62,3DCCE5A0-AD64-4006-9610-DD3C35995850,my_iOS_device,1519585077,38.03561144,-78.49833,150.3698,1.27,-1,192,50,-9999,1519585083,32.17227936,36.08582306,5.046936035,308.4606628,318.2362671,15,1434048.806,-0.0007934570313,0.01823425293,-1.001144409,1434048.748,-0.0053646717,-0.005374525396,-0.00103144229,1434047.764,-0.8450146305,-0.003477812577,-0.01164839702,0.003966848366,0.003837948665,0.0009125322104,-0.00108480826,0.001764342189,-0.0065741539,XArbitraryCorrectedZVertical,-0.006025025621,0.000802221708,-0.4100317657,0.9120509624,-0.003477569669,0.0116481334,-0.9999260902,31.3249054,35.87401581,4.907836914,2,1434047.152,automotive,2,2018-02-25 13:58:01.241 -0500,null,0,0,0,0,null,1434045.952,0,-0.636795,99.76369,10.41.3.217,100.110.18.251,5,1,0.61,-2.342934,-49.29943,0
2018-02-25 13:58:02.956 -0500,63,3DCCE5A0-AD64-4006-9610-DD3C35995850,my_iOS_device,1519585077,38.03561144,-78.49833,150.3698,1.27,-1,192,50,-9999,1519585083,32.1555481,35.97060394,5.088439941,308.4612732,318.2368774,15,1434048.865,-0.001174926758,0.01100158691,-0.9927520752,1434048.808,-0.004287689355,-0.005383580144,-0.00317102591,1434047.764,-0.8450146305,-0.003477812577,-0.01164839702,0.003966848366,0.003837948665,0.0009125322104,-0.00108480826,0.001764342189,-0.0065741539,XArbitraryCorrectedZVertical,-0.006025025621,0.000802221708,-0.4100317657,0.9120509624,-0.003477569669,0.0116481334,-0.9999260902,31.3249054,35.87401581,4.907836914,2,1434047.152,automotive,2,2018-02-25 13:58:01.241 -0500,null,0,0,0,0,null,1434045.952,0,-0.636795,99.76369,10.41.3.217,100.110.18.251,5,1,0.61,-3.457492,-48.72672,0
2018-02-25 13:58:03.015 -0500,64,3DCCE5A0-AD64-4006-9610-DD3C35995850,my_iOS_device,1519585077,38.03561144,-78.49833,150.3698,1.27,-1,192,50,-9999,1519585083,31.94141388,35.91861725,5.235717773,308.462677,318.2382813,15,1434048.925,-0.003692626953,0.01699829102,-1.00630188,1434048.868,-0.008557269215,-0.005361742223,-0.004219246115,1434047.764,-0.8450146305,-0.003477812577,-0.01164839702,0.003966848366,0.003837948665,0.0009125322104,-0.00108480826,0.001764342189,-0.0065741539,XArbitraryCorrectedZVertical,-0.006025025621,0.000802221708,-0.4100317657,0.9120509624,-0.003477569669,0.0116481334,-0.9999260902,31.3249054,35.87401581,4.907836914,2,1434047.152,automotive,2,2018-02-25 13:58:01.241 -0500,null,0,0,0,0,null,1434045.952,0,-0.636795,99.76369,10.41.3.217,100.110.18.251,5,1,0.61,-5.129329,-50.1011,0
2018-02-25 13:58:03.075 -0500,65,3DCCE5A0-AD64-4006-9610-DD3C35995850,my_iOS_device,1519585077,38.03561144,-78.49833,150.3698,1.27,-1,192,50,-9999,1519585083,32.12489319,35.95413971,5.231933594,308.4639587,318.239563,15,1434048.985,-0.003829956055,0.02166748047,-1.015396118,1434048.928,-0.008572182917,-0.007521033234,-0.00314705746,1434047.764,-0.8450146305,-0.003477812577,-0.01164839702,0.003966848366,0.003837948665,0.0009125322104,-0.00108480826,0.001764342189,-0.0065741539,XArbitraryCorrectedZVertical,-0.006025025621,0.000802221708,-0.4100317657,0.9120509624,-0.003477569669,0.0116481334,-0.9999260902,31.3249054,35.87401581,4.907836914,2,1434047.152,automotive,2,2018-02-25 13:58:01.241 -0500,null,0,0,0,0,null,1434045.952,0,-0.636795,99.76369,10.41.3.217,100.110.18.251,5,1,0.61,-6.243886,-51.18571,0
2018-02-25 13:58:03.150 -0500,66,3DCCE5A0-AD64-4006-9610-DD3C35995850,my_iOS_device,1519585077,38.03561144,-78.49833,150.3698,1.27,-1,192,50,-9999,1519585083,32.070755,35.94532013,5.091430664,308.463623,318.2392273,15,1434049.044,0.0002746582031,0.01919555664,-1.000686646,1434048.987,-0.007486678456,-0.003203516475,-0.002094043565,1434047.764,-0.8450146305,-0.003477812577,-0.01164839702,0.003966848366,0.003837948665,0.0009125322104,-0.00108480826,0.001764342189,-0.0065741539,XArbitraryCorrectedZVertical,-0.006025025621,0.000802221708,-0.4100317657,0.9120509624,-0.003477569669,0.0116481334,-0.9999260902,31.3249054,35.87401581,4.907836914,2,1434047.152,automotive,2,2018-02-25 13:58:01.241 -0500,null,0,0,0,0,null,1434045.952,0,-0.636795,99.76369,10.41.3.217,100.110.18.251,5,1,0.61,-8.473002,-49.32341,0
2018-02-25 13:58:03.271 -0500,67,3DCCE5A0-AD64-4006-9610-DD3C35995850,my_iOS_device,1519585077,38.03561144,-78.49833,150.3698,1.27,-1,192,50,-9999,1519585083,32.070755,35.94532013,5.091430664,308.463623,318.2392273,15,1434049.104,0.003540039063,0.01164245605,-0.995223999,1434049.047,-0.005362541171,-0.007540207994,-0.004228833495,1434047.764,-0.8450146305,-0.003477812577,-0.01164839702,0.003966848366,0.003837948665,0.0009125322104,-0.00108480826,0.001764342189,-0.0065741539,XArbitraryCorrectedZVertical,-0.006025025621,0.000802221708,-0.4100317657,0.9120509624,-0.003477569669,0.0116481334,-0.9999260902,31.3249054,35.87401581,4.907836914,2,1434047.152,automotive,2,2018-02-25 13:58:01.241 -0500,null,0,0,0,0,null,1434045.952,0,-0.636795,99.76369,10.41.3.217,100.110.18.251,5,1,0.61,-11.2594,-44.26373,0
2018-02-25 13:58:03.277 -0500,68,3DCCE5A0-AD64-4006-9610-DD3C35995850,my_iOS_device,1519585077,38.03561144,-78.49833,150.3698,1.27,-1,192,50,-9999,1519585083,32.09790802,36.4940567,5.454772949,308.4645081,318.2401123,15,1434049.164,-0.0003509521484,0.0163269043,-1.010345459,1434049.107,-0.008540224984,-0.001038366509,-0.00316143853,1434047.764,-0.8450146305,-0.003477812577,-0.01164839702,0.003966848366,0.003837948665,0.0009125322104,-0.00108480826,0.001764342189,-0.0065741539,XArbitraryCorrectedZVertical,-0.006025025621,0.000802221708,-0.4100317657,0.9120509624,-0.003477569669,0.0116481334,-0.9999260902,31.3249054,35.87401581,4.907836914,2,1434047.152,automotive,2,2018-02-25 13:58:01.241 -0500,null,0,0,0,0,null,1434045.952,0,-0.636795,99.76369,10.41.3.217,100.110.18.251,1,1,0.61,-11.2594,-44.26373,0
2018-02-25 13:58:03.314 -0500,69,3DCCE5A0-AD64-4006-9610-DD3C35995850,my_iOS_device,1519585077,38.03561144,-78.49833,150.3698,1.27,-1,192,50,-9999,1519585083,32.17519379,36.03868866,5.114624023,308.4634705,318.2390747,15,1434049.224,-0.00390625,0.02127075195,-1.011444092,1434049.166,-0.009628925237,-0.004272243021,-0.00208205934,1434047.764,-0.8450146305,-0.003477812577,-0.01164839702,0.003966848366,0.003837948665,0.0009125322104,-0.00108480826,0.001764342189,-0.0065741539,XArbitraryCorrectedZVertical,-0.006025025621,0.000802221708,-0.4100317657,0.9120509624,-0.003477569669,0.0116481334,-0.9999260902,31.3249054,35.87401581,4.907836914,2,1434047.152,automotive,2,2018-02-25 13:58:01.241 -0500,null,0,0,0,0,null,1434045.952,0,-0.636795,99.76369,10.41.3.217,100.110.18.251,1,1,0.61,-12.37395,-44.96696,0
2018-02-25 13:58:03.374 -0500,70,3DCCE5A0-AD64-4006-9610-DD3C35995850,my_iOS_device,1519585077,38.03561144,-78.49833,150.3698,1.27,-1,192,50,-9999,1519585083,32.04605865,35.71483612,4.798461914,308.4603271,318.2359314,15,1434049.283,-0.002822875977,0.01609802246,-0.9990844727,1434049.226,-0.005360410642,-0.005376123293,-0.002098837255,1434047.764,-0.8450146305,-0.003477812577,-0.01164839702,0.003966848366,0.003837948665,0.0009125322104,-0.00108480826,0.001764342189,-0.0065741539,XArbitraryCorrectedZVertical,-0.006025025621,0.000802221708,-0.4100317657,0.9120509624,-0.003477569669,0.0116481334,-0.9999260902,31.3249054,35.87401581,4.907836914,2,1434047.152,automotive,2,2018-02-25 13:58:01.241 -0500,null,0,0,0,0,null,1434045.952,0,-0.636795,99.76369,10.41.3.217,100.110.18.251,1,1,0.61,-13.48851,-46.49274,0
2018-02-25 13:58:03.433 -0500,71,3DCCE5A0-AD64-4006-9610-DD3C35995850,my_iOS_device,1519585077,38.03561144,-78.49833,150.3698,1.27,-1,192,50,-9999,1519585083,32.19517136,35.57627106,4.804382324,308.4512634,318.2268677,15,1434049.343,-0.00276184082,0.01373291016,-1.001586914,1434049.286,-0.005372128551,-0.008619054552,-0.003159041685,1434049.321,-0.8374090396,-0.001342294033,-0.01713227899,-0.0002655456774,-0.0005638091825,-0.0001658289693,0.003844538238,-0.002193085849,0.001820743084,XArbitraryCorrectedZVertical,-0.008098931983,0.002869606484,-0.4065569937,0.913584888,-0.001342096599,0.01713144034,-0.9998523593,32.04151917,35.72176361,4.89263916,2,1434047.152,automotive,2,2018-02-25 13:58:01.241 -0500,null,0,0,0,0,null,1434046.898,0,-0.6050873,99.76332,10.41.3.217,100.110.18.251,1,1,0.61,-15.16035,-46.99392,0
