loggingTime(txt),loggingSample(N),identifierForVendor(txt),deviceID(txt),locationTimestamp_since1970(s),locationLatitude(WGS84),locationLongitude(WGS84),locationAltitude(m),locationSpeed(m/s),locationCourse(°),locationVerticalAccuracy(m),locationHorizontalAccuracy(m),locationFloor(Z),locationHeadingTimestamp_since1970(s),locationHeadingX(µT),locationHeadingY(µT),locationHeadingZ(µT),locationTrueHeading(°),locationMagneticHeading(°),locationHeadingAccuracy(°),accelerometerTimestamp_sinceReboot(s),accelerometerAccelerationX(G),accelerometerAccelerationY(G),accelerometerAccelerationZ(G),gyroTimestamp_sinceReboot(s),gyroRotationX(rad/s),gyroRotationY(rad/s),gyroRotationZ(rad/s),motionTimestamp_sinceReboot(s),motionYaw(rad),motionRoll(rad),motionPitch(rad),motionRotationRateX(rad/s),motionRotationRateY(rad/s),motionRotationRateZ(rad/s),motionUserAccelerationX(G),motionUserAccelerationY(G),motionUserAccelerationZ(G),motionAttitudeReferenceFrame(txt),motionQuaternionX(R),motionQuaternionY(R),motionQuaternionZ(R),motionQuaternionW(R),motionGravityX(G),motionGravityY(G),motionGravityZ(G),motionMagneticFieldX(µT),motionMagneticFieldY(µT),motionMagneticFieldZ(µT),motionMagneticFieldCalibrationAccuracy(Z),activityTimestamp_sinceReboot(s),activity(txt),activityActivityConfidence(Z),activityActivityStartDate(txt),pedometerStartDate(txt),pedometerNumberofSteps(N),pedometerDistance(m),pedometerFloorAscended(N),pedometerFloorDescended(N),pedometerEndDate(txt),altimeterTimestamp_sinceReboot(s),altimeterReset(bool),altimeterRelativeAltitude(m),altimeterPressure(kPa),IP_en0(txt),IP_pdp_ip0(txt),deviceOrientation(Z),batteryState(R),batteryLevel(Z),avAudioRecorderPeakPower(dB),avAudioRecorderAveragePower(dB),state(N)
2018-02-25 17:36:29.609 -0500,1,3DCCE5A0-AD64-4006-9610-DD3C35995850,my_iOS_device,1519598188,38.04127022,-78.49771984,172.9356,-1,-1,10,65,-9999,1519598190,27.83592415,30.15246582,-7.542541504,306.7423401,316.5180054,15,1441388.037,0.01042175293,0.02014160156,-1.012954712,1441388.008,-0.008550877628,-0.003199255418,-0.00315664484,1441388.032,-0.8170847115,-0.003755881111,-0.02748914286,0.0009668497369,-0.003261654638,0.002141071018,0.01228411682,-0.005543543026,-0.01925998926,XArbitraryCorrectedZVertical,0.01335897855,-0.003736941842,0.3972104192,-0.9176216722,-0.003754453268,0.0274856817,-0.9996151328,27.83592415,30.15246582,-7.542541504,2,1441387.635,automotive,0,2018-02-25 17:36:29.179 -0500,null,0,0,0,0,null,1441386.036,0,-0.2642212,99.43706,0.0.0.0,100.110.18.251,1,1,0.7,-120,-120,0
2018-02-25 17:36:29.643 -0500,2,3DCCE5A0-AD64-4006-9610-DD3C35995850,my_iOS_device,1519598188,38.04127022,-78.49771984,172.9356,-1,-1,10,65,-9999,1519598190,27.78283882,30.0032959,-7.476928711,306.753479,316.5291443,15,1441388.096,0.01368713379,0.02157592773,-1.009124756,1441388.068,-0.004294080942,-0.007546066949,-0.004233627185,1441388.067,-0.8170499795,-0.003435686282,-0.02727787533,0.002036444377,-0.002188797574,-2.79E-06,0.01690791175,-0.00461519137,-0.0198328495,XArbitraryCorrectedZVertical,0.01319852285,-0.003841658356,0.3971973658,-0.9176291823,-0.003434401471,0.02727449313,-0.9996221066,27.82158661,29.94404602,-7.771179199,2,1441387.635,automotive,0,2018-02-25 17:36:29.179 -0500,null,0,0,0,0,null,1441386.036,0,-0.2642212,99.43706,0.0.0.0,100.110.18.251,1,1,0.7,-120,-120,0
2018-02-25 17:36:29.701 -0500,3,3DCCE5A0-AD64-4006-9610-DD3C35995850,my_iOS_device,1519598188,38.04127022,-78.49771984,172.9356,-1,-1,10,65,-9999,1519598190,27.8350544,29.90220642,-7.58605957,306.7651062,316.5407715,15,1441388.156,0.0149230957,0.0168762207,-0.9933319092,1441388.128,-0.006418218227,-0.00320937543,-0.002098837255,1441388.136,-0.8169828143,-0.002714131755,-0.0268940568,0.0009631654248,0.001061019721,0.002134451875,0.01112073939,-0.005116522312,-0.01628023386,XArbitraryCorrectedZVertical,0.01287925988,-0.004096051678,0.3971725404,-0.9176434278,-0.002713146852,0.0268908143,-0.9996346831,27.8350544,29.90220642,-7.58605957,2,1441387.635,automotive,0,2018-02-25 17:36:29.179 -0500,null,0,0,0,0,null,1441386.036,0,-0.2642212,99.43706,0.0.0.0,100.110.18.251,1,1,0.7,-120,-120,0
2018-02-25 17:36:29.761 -0500,4,3DCCE5A0-AD64-4006-9610-DD3C35995850,my_iOS_device,1519598188,38.04127022,-78.49771984,172.9356,-1,-1,10,65,-9999,1519598190,27.88367653,30.12127686,-7.728210449,306.7737427,316.549408,15,1441388.216,0.01362609863,0.02108764648,-1.015197754,1441388.187,-0.008567921859,-0.007522631131,-0.004214452425,1441388.206,-0.8169578455,-0.002033660298,-0.02657951945,0.00200937083,-0.00219015684,-0.001062423689,0.01913804188,-0.005000462756,-0.009159624577,XArbitraryCorrectedZVertical,0.01259986497,-0.004345641006,0.3971664011,-0.9176489115,-0.002032940509,0.02657639049,-0.9996446967,28.00045776,30.13278198,-7.578186035,2,1441387.635,automotive,0,2018-02-25 17:36:29.179 -0500,null,0,0,0,0,null,1441386.036,0,-0.2642212,99.43706,0.0.0.0,100.110.18.251,1,1,0.7,-120,-120,0
2018-02-25 17:36:29.820 -0500,5,3DCCE5A0-AD64-4006-9610-DD3C35995850,my_iOS_device,1519598188,38.04127022,-78.49771984,172.9356,-1,-1,10,65,-9999,1519598190,27.85790634,30.49597168,-7.213134766,306.7971802,316.5728455,15,1441388.275,0.01719665527,0.02268981934,-1.012771606,1441388.247,-0.007503722687,-0.007526892189,-0.00315185115,1441388.241,-0.8170951893,-0.001750027553,-0.02636360292,-0.001226012129,-0.0043292474,0.002161361277,0.01217117067,-0.003914870322,-0.008527755737,XArbitraryCorrectedZVertical,0.0124441674,-0.004433751572,0.3972318172,-0.917622447,-0.001749418559,0.02636054903,-0.9996509552,27.85790634,30.49597168,-7.213134766,2,1441387.635,automotive,0,2018-02-25 17:36:29.179 -0500,null,0,0,0,0,null,1441386.036,0,-0.2642212,99.43706,0.0.0.0,100.110.18.251,1,1,0.7,-120,-120,0
2018-02-25 17:36:29.886 -0500,6,3DCCE5A0-AD64-4006-9610-DD3C35995850,my_iOS_device,1519598188,38.04127022,-78.49771984,172.9356,-1,-1,10,65,-9999,1519598190,28.11702347,30.20231628,-7.488586426,306.8289795,316.6046448,15,1441388.335,0.01637268066,0.01623535156,-0.9990386963,1441388.307,-0.006420348756,-0.005373460131,-0.004228833495,1441388.31,-0.8173001262,-0.001177644877,-0.02607287604,-0.0001372206025,-0.001099160872,-0.002122809645,0.01559680048,-0.004478735849,-0.003087162971,XArbitraryCorrectedZVertical,0.01219661813,-0.004639870021,0.3973301947,-0.9175822735,-0.001177244354,0.02606992237,-0.9996594191,27.92416191,29.97819519,-7.571289063,2,1441387.635,automotive,0,2018-02-25 17:36:29.179 -0500,null,0,0,0,0,null,1441386.036,0,-0.2642212,99.43706,0.0.0.0,100.110.18.251,1,1,0.7,-120,-120,0
2018-02-25 17:36:29.940 -0500,7,3DCCE5A0-AD64-4006-9610-DD3C35995850,my_iOS_device,1519598188,38.04127022,-78.49771984,172.9356,-1,-1,10,65,-9999,1519598190,28.06693268,30.1889801,-7.532531738,306.839325,316.6149902,15,1441388.395,0.01123046875,0.02380371094,-1.016418457,1441388.366,-0.007513310067,-0.008605738746,-0.00208205934,1441388.38,-0.8173535931,-0.0007151035962,-0.025793029,0.000913945958,-0.001103085,-0.001063321717,0.01492079813,-0.004443123937,0.0008115172386,XArbitraryCorrectedZVertical,0.01197620854,-0.004796803929,0.3973583281,-0.9175720811,-0.0007148656878,0.02579016984,-0.9996671081,28.06693268,30.1889801,-7.532531738,2,1441387.635,automotive,0,2018-02-25 17:36:29.179 -0500,null,0,0,0,0,null,1441386.036,0,-0.2642212,99.43706,0.0.0.0,100.110.18.251,1,1,0.7,-120,-120,0
2018-02-25 17:36:30.000 -0500,8,3DCCE5A0-AD64-4006-9610-DD3C35995850,my_iOS_device,1519598188,38.04127022,-78.49771984,172.9356,-1,-1,10,65,-9999,1519598190,27.96696091,30.07130432,-7.68927002,306.8518982,316.6275635,15,1441388.455,0.01419067383,0.02073669434,-1.001052856,1441388.426,-0.004287689355,-0.005383580144,-0.00317102591,1441388.45,-0.8174108367,-0.0002356926624,-0.02557644365,-0.0001544011757,0.002147400053,0.001067156205,0.01541811042,-0.007202073932,0.004128456116,XArbitraryCorrectedZVertical,0.01178145036,-0.004974056501,0.3973880112,-0.9175608158,-0.0002356155746,0.02557365596,-0.9996728897,27.9732914,30.08119202,-7.62109375,2,1441387.635,automotive,0,2018-02-25 17:36:29.179 -0500,null,0,0,0,0,null,1441386.036,0,-0.2642212,99.43706,0.0.0.0,100.110.18.251,1,1,0.7,-120,-120,0
2018-02-25 17:36:30.059 -0500,9,3DCCE5A0-AD64-4006-9610-DD3C35995850,my_iOS_device,1519598188,38.04127022,-78.49771984,172.9356,-1,-1,10,65,-9999,1519598190,28.06898308,29.98812866,-7.583129883,306.8562622,316.6319275,15,1441388.514,0.01473999023,0.017578125,-1.000839233,1441388.486,-0.007482417399,-0.003205114372,-0.00316143853,1441388.484,-0.8173373791,-5.10E-05,-0.02546203647,0.001980088186,0.001053543063,-1.10E-05,0.01479095407,-0.00797271356,0.0008355379105,XArbitraryCorrectedZVertical,0.01169244666,-0.005035638344,0.3973557055,-0.9175755382,-5.10E-05,0.02545928583,-0.9996758699,28.06898308,29.98812866,-7.583129883,2,1441387.635,automotive,0,2018-02-25 17:36:29.179 -0500,null,0,0,0,0,null,1441386.036,0,-0.2642212,99.43706,0.0.0.0,100.110.18.251,1,1,0.7,-120,-120,0
2018-02-25 17:36:30.122 -0500,10,3DCCE5A0-AD64-4006-9610-DD3C35995850,my_iOS_device,1519598188,38.04127022,-78.49771984,172.9356,-1,-1,10,65,-9999,1519598190,28.15587234,30.20021057,-7.604980469,306.8639832,316.6396484,15,1441388.574,0.01429748535,0.02314758301,-1.019622803,1441388.545,-0.007502657423,-0.006444849838,-0.00208685303,1441388.554,-0.8172752414,0.0003866976153,-0.02523635984,-0.0001760865562,-0.00217428105,0.001064102165,0.01783242077,-0.008769448847,-0.00483506918,XArbitraryCorrectedZVertical,0.01150211319,-0.005191246513,0.3973303139,-0.9175879955,0.0003865744802,0.02523368038,-0.9996815324,27.99672508,30.09985352,-7.598754883,2,1441387.635,automotive,0,2018-02-25 17:36:29.179 -0500,null,0,0,0,0,null,1441386.036,0,-0.2642212,99.43706,0.0.0.0,100.110.18.251,1,1,0.7,-120,-120,0
2018-02-25 17:36:30.179 -0500,11,3DCCE5A0-AD64-4006-9610-DD3C35995850,my_iOS_device,1519598188,38.04127022,-78.49771984,172.9356,-1,-1,10,65,-9999,1519598190,27.96977806,30.12374878,-7.686279297,306.8771667,316.652832,15,1441388.634,0.01707458496,0.01986694336,-1.002365112,1441388.605,-0.006423544549,-0.004289819884,-0.00209644041,1441388.624,-0.817252586,0.000758398116,-0.02500641309,0.001980493777,0.001107017975,-0.001125568757,0.01236439776,-0.005503075197,-0.01291668415,XArbitraryCorrectedZVertical,0.01132282987,-0.005315969698,0.3973225653,-0.9175929427,0.0007581609534,0.02500380762,-0.9996870756,28.2060833,30.33195496,-7.714294434,2,1441387.635,automotive,0,2018-02-25 17:36:29.179 -0500,null,0,0,0,0,null,1441386.036,0,-0.2642212,99.43706,0.0.0.0,100.110.18.251,1,1,0.7,-120,-120,0
2018-02-25 17:36:30.238 -0500,12,3DCCE5A0-AD64-4006-9610-DD3C35995850,my_iOS_device,1519598188,38.04127022,-78.49771984,172.9356,-1,-1,10,65,-9999,1519598190,28.04811859,29.74984741,-7.665405273,306.8768005,316.6524658,15,1441388.693,0.0166015625,0.01849365234,-1.008300781,1441388.665,0.004310059908,0.002127865711,-0.006428338239,1441388.693,-0.8171424182,0.001459239146,-0.02422133638,0.01909595914,0.005371694453,-0.002298206091,0.01311333291,-0.002643041313,-0.01630085707,XArbitraryCorrectedZVertical,0.0108237071,-0.005480957218,0.3972776234,-0.9176174402,0.001458810642,0.02421896718,-0.9997056127,27.83039856,29.85188293,-7.57611084,2,1441387.635,automotive,0,2018-02-25 17:36:29.179 -0500,null,0,0,0,0,null,1441387.056,0,-0.2774353,99.4372,0.0.0.0,100.110.18.251,1,1,0.7,-120,-120,0
2018-02-25 17:36:30.303 -0500,13,3DCCE5A0-AD64-4006-9610-DD3C35995850,my_iOS_device,1519598188,38.04127022,-78.49771984,172.9356,-1,-1,10,65,-9999,1519598190,28.05119896,29.96203613,-7.780029297,306.8869019,316.6625671,15,1441388.753,0.0122833252,0.0200958252,-1.015853882,1441388.724,0.01175306252,-0.004394215799,-0.005380118034,1441388.728,-0.8171886337,0.001587011507,-0.02359162608,0.02013264969,-0.001116928644,-0.002293388126,0.01062046271,-0.005629843101,-0.01195251942,XArbitraryCorrectedZVertical,0.01050928142,-0.005414742976,0.3973007798,-0.9176114798,0.00158656924,0.02358943783,-0.9997204542,28.05119896,29.96203613,-7.780029297,2,1441387.635,automotive,0,2018-02-25 17:36:29.179 -0500,null,0,0,0,0,null,1441387.056,0,-0.2774353,99.4372,0.0.0.0,100.110.18.251,1,1,0.7,-120,-120,0
2018-02-25 17:36:30.358 -0500,14,3DCCE5A0-AD64-4006-9610-DD3C35995850,my_iOS_device,1519598188,38.04127022,-78.49771984,172.9356,-1,-1,10,65,-9999,1519598190,28.06403732,29.9987793,-7.655700684,306.8957825,316.6714478,15,1441388.813,0.01400756836,0.01689147949,-0.9932861328,1441388.784,0.002166747863,0.004306864115,-0.00215396469,1441388.798,-0.8172053216,0.002140835731,-0.02262740739,0.00734200282,0.006519211456,-0.001190119423,0.01336264424,-0.003567248583,-0.01835519075,XArbitraryCorrectedZVertical,0.009956821799,-0.005477388389,0.3973130286,-0.9176121354,0.002140286146,0.02262547612,-0.9997417331,28.05185318,29.98738098,-7.703369141,2,1441387.635,automotive,0,2018-02-25 17:36:29.179 -0500,null,0,0,0,0,null,1441387.056,0,-0.2774353,99.4372,0.0.0.0,100.110.18.251,1,1,0.7,-120,-120,0
2018-02-25 17:36:30.417 -0500,15,3DCCE5A0-AD64-4006-9610-DD3C35995850,my_iOS_device,1519598188,38.04127022,-78.49771984,172.9356,-1,-1,10,65,-9999,1519598190,28.07472801,29.97361755,-7.602050781,306.8969727,316.6726379,15,1441388.872,0.01341247559,0.01924133301,-1.013458252,1441388.844,-0.01925571995,-0.00638040134,-0.002034122441,1441388.867,-0.817133312,0.002377986938,-0.02283047763,-0.001266720705,-0.004235558212,0.001009371597,0.01204219088,-0.0007490254939,-0.0230448246,XArbitraryCorrectedZVertical,0.01000308339,-0.005626173224,0.3972808123,-0.917624712,0.002377365017,0.02282849513,-0.9997365475,28.05855942,30.02360535,-7.602111816,2,1441387.635,automotive,0,2018-02-25 17:36:29.179 -0500,null,0,0,0,0,null,1441387.056,0,-0.2774353,99.4372,0.0.0.0,100.110.18.251,1,1,0.7,-120,-120,0
2018-02-25 17:36:30.477 -0500,16,3DCCE5A0-AD64-4006-9610-DD3C35995850,my_iOS_device,1519598188,38.04127022,-78.49771984,172.9356,-1,-1,10,65,-9999,1519598190,27.94293976,30.16615295,-7.682739258,306.9093628,316.6850281,15,1441388.932,0.01387023926,0.01989746094,-1.016571045,1441388.904,-0.007493070043,-0.00536600328,-0.00315664484,1441388.902,-0.8171630751,0.002379125637,-0.02300515223,-0.006602772046,-0.005290862639,-0.002167189028,0.01117131021,-0.0003590807319,-0.0106434226,XArbitraryCorrectedZVertical,0.01008291729,-0.005661542062,0.3972941935,-0.9176177382,0.00237849378,0.0230031237,-0.999732554,27.99711227,30.04577637,-7.958679199,2,1441387.635,automotive,0,2018-02-25 17:36:29.179 -0500,null,0,0,0,0,null,1441387.056,0,-0.2774353,99.4372,0.0.0.0,100.110.18.251,1,1,0.7,-120,-120,0
2018-02-25 17:36:30.541 -0500,17,3DCCE5A0-AD64-4006-9610-DD3C35995850,my_iOS_device,1519598188,38.04127022,-78.49771984,172.9356,-1,-1,10,65,-9999,1519598191,27.95076752,30.20423889,-7.624084473,306.9125366,316.6882019,15,1441388.992,0.01622009277,0.01821899414,-1.001266479,1441388.963,-0.01174880146,6.29E-05,-0.001014664375,1441388.972,-0.8171775613,0.002579095587,-0.02345279524,-0.003393684514,-0.0009799739346,0.002077316632,0.009750718251,0.000429360196,-0.000263094902,XArbitraryCorrectedZVertical,0.01024853718,-0.005842282902,0.3973011076,-0.9176116586,0.002578383544,0.02345064469,-0.9997216463,27.95076752,30.20423889,-7.624084473,2,1441387.635,automotive,0,2018-02-25 17:36:29.179 -0500,null,0,0,0,0,null,1441387.056,0,-0.2774353,99.4372,0.0.0.0,100.110.18.251,1,1,0.7,-120,-120,0
2018-02-25 17:36:30.597 -0500,18,3DCCE5A0-AD64-4006-9610-DD3C35995850,my_iOS_device,1519598188,38.04127022,-78.49771984,172.9356,-1,-1,10,65,-9999,1519598191,28.031744,30.20292664,-7.496765137,306.9185486,316.6942139,15,1441389.051,0.01173400879,0.02142333984,-1.017791748,1441389.023,-0.003202184895,-0.001066063384,-0.002118012015,1441389.042,-0.8171684461,0.003132984418,-0.02309263291,0.01267957874,0.006491760723,-0.000145327067,0.01157732867,-0.001926640049,0.003009080887,XArbitraryCorrectedZVertical,0.009973286651,-0.006024824455,0.3973003328,-0.9176138043,0.003132143989,0.02309058048,-0.9997284412,28.031744,30.20292664,-7.496765137,2,1441387.635,automotive,0,2018-02-25 17:36:29.179 -0500,null,0,0,0,0,null,1441387.056,0,-0.2774353,99.4372,0.0.0.0,100.110.18.251,1,1,0.7,-120,-120,0
2018-02-25 17:36:30.658 -0500,19,3DCCE5A0-AD64-4006-9610-DD3C35995850,my_iOS_device,1519598191,38.04160613,-78.49772198,172.3484,0,-1,32,30,-9999,1519598191,27.9363308,30.22395325,-7.586853027,306.9256592,316.7013245,15,1441389.111,0.01463317871,0.0207824707,-0.9986724854,1441389.083,0.01287159018,0.007488010037,-0.003276487089,1441389.076,-0.8172240024,0.00378759106,-0.02225757187,0.02127140015,0.01617024094,0.0008628368378,0.01388303377,-0.004647092894,-0.0152695179,XArbitraryCorrectedZVertical,0.009459936991,-0.00615955377,0.3973301947,-0.9176055193,0.003786643967,0.02225573361,-0.9997451305,27.9363308,30.22395325,-7.586853027,2,1441387.635,automotive,0,2018-02-25 17:36:29.179 -0500,null,0,0,0,0,null,1441387.056,0,-0.2774353,99.4372,0.0.0.0,100.110.18.251,1,1,0.7,-120,-120,0
2018-02-25 17:36:30.716 -0500,20,3DCCE5A0-AD64-4006-9610-DD3C35995850,my_iOS_device,1519598191,38.04160613,-78.49772198,172.3484,0,-1,32,30,-9999,1519598191,28.00459099,30.21595764,-7.561889648,306.9373779,316.7130432,15,1441389.171,0.01429748535,0.01008605957,-1.001602173,1441389.142,0.03752820082,0.0213942383,-0.006620085838,1441389.146,-0.8173808085,0.005085382118,-0.02057237175,0.04377091676,0.02576649748,-0.003533701412,0.01101373881,-0.001711057499,-0.008052289486,XArbitraryCorrectedZVertical,0.008428411558,-0.006420890335,0.3974098265,-0.9175792336,0.005084284116,0.02057092078,-0.9997754693,28.00459099,30.21595764,-7.561889648,2,1441387.635,automotive,0,2018-02-25 17:36:29.179 -0500,null,0,0,0,0,null,1441387.056,0,-0.2774353,99.4372,0.0.0.0,100.110.18.251,1,1,0.7,-120,-120,0
2018-02-25 17:36:30.778 -0500,21,3DCCE5A0-AD64-4006-9610-DD3C35995850,my_iOS_device,1519598191,38.04160613,-78.49772198,172.3484,0,-1,32,30,-9999,1519598191,27.97150803,29.97543335,-7.697265625,306.9530945,316.7287598,15,1441389.231,0.01750183105,0.01759338379,-1.02104187,1441389.202,-0.01602370765,-0.0009957559316,-0.002060487735,1441389.216,-0.8174556261,0.005783342743,-0.01918819588,-0.01622345299,-0.005236385856,-0.001057341462,0.01409995556,-0.005988165736,0.003308713436,XArbitraryCorrectedZVertical,0.007654417306,-0.006466384046,0.3974479437,-0.9175692797,0.005782245658,0.01918701828,-0.999799192,27.97150803,29.97543335,-7.697265625,2,1441387.635,automotive,0,2018-02-25 17:36:29.179 -0500,null,0,0,0,0,null,1441387.056,0,-0.2774353,99.4372,0.0.0.0,100.110.18.251,1,1,0.7,-120,-120,0
2018-02-25 17:36:30.835 -0500,22,3DCCE5A0-AD64-4006-9610-DD3C35995850,my_iOS_device,1519598191,38.04160613,-78.49772198,172.3484,0,-1,32,30,-9999,1519598191,27.98339844,30.06996155,-7.68951416,306.9612732,316.7369385,15,1441389.29,0.0150604248,0.01527404785,-1.000457764,1441389.262,-0.009669405286,-0.01508148125,-0.005260275785,1441389.285,-0.8175403778,0.005122599825,-0.02016020134,0.0008816961199,-0.002086156514,-7.68E-05,0.01151054353,-0.006074974313,0.005658328533,XArbitraryCorrectedZVertical,0.008231404237,-0.00635672966,0.3974834979,-0.9175497293,0.005121536553,0.02015883662,-0.9997836947,27.98339844,30.06996155,-7.68951416,2,1441387.635,automotive,0,2018-02-25 17:36:29.179 -0500,null,0,0,0,0,null,1441387.056,0,-0.2774353,99.4372,0.0.0.0,100.110.18.251,1,1,0.7,-120,-120,0
2018-02-25 17:36:30.895 -0500,23,3DCCE5A0-AD64-4006-9610-DD3C35995850,my_iOS_device,1519598191,38.04160613,-78.49772198,172.3484,0,-1,32,30,-9999,1519598191,27.95937538,29.99597168,-7.556030273,306.9689636,316.7446289,15,1441389.35,0.01815795898,0.01127624512,-1.014312744,1441389.321,0.04179351962,0.02137399828,-0.004504470668,1441389.32,-0.8175892826,0.005835481656,-0.01913047564,0.04803775623,0.02682804875,-0.0003523898777,0.006387909409,-0.003412755206,-0.008851766586,XArbitraryCorrectedZVertical,0.00761714112,-0.006479344331,0.3975094855,-0.9175428748,0.00583438063,0.01912930794,-0.9997999668,27.95937538,29.99597168,-7.556030273,2,1441387.635,automotive,0,2018-02-25 17:36:29.179 -0500,null,0,0,0,0,null,1441387.056,0,-0.2774353,99.4372,0.0.0.0,100.110.18.251,1,1,0.7,-120,-120,0
2018-02-25 17:36:30.955 -0500,24,3DCCE5A0-AD64-4006-9610-DD3C35995850,my_iOS_device,1519598191,38.04160613,-78.49772198,172.3484,0,-1,32,30,-9999,1519598191,27.75305367,30.10093689,-7.317871094,306.9714355,316.7471008,15,1441389.41,0.01638793945,0.02116394043,-1.018112183,1441389.381,-0.03315315978,-0.009548764088,-0.004099403866,1441389.32,-0.8175892826,0.005835481656,-0.01913047564,0.04803775623,0.02682804875,-0.0003523898777,0.006387909409,-0.003412755206,-0.008851766586,XArbitraryCorrectedZVertical,0.00761714112,-0.006479344331,0.3975094855,-0.9175428748,0.00583438063,0.01912930794,-0.9997999668,27.95937538,29.99597168,-7.556030273,2,1441387.635,automotive,0,2018-02-25 17:36:29.179 -0500,null,0,0,0,0,null,1441387.056,0,-0.2774353,99.4372,0.0.0.0,100.110.18.251,1,1,0.7,-120,-120,0
2018-02-25 17:36:31.014 -0500,25,3DCCE5A0-AD64-4006-9610-DD3C35995850,my_iOS_device,1519598191,38.04160613,-78.49772198,172.3484,0,-1,32,30,-9999,1519598191,27.75181961,29.99081421,-7.442749023,306.9696045,316.7452698,15,1441389.469,0.01631164551,0.01512145996,-0.9932556152,1441389.441,-0.04074103836,-0.02895095789,-0.0008205199319,1441389.32,-0.8175892826,0.005835481656,-0.01913047564,0.04803775623,0.02682804875,-0.0003523898777,0.006387909409,-0.003412755206,-0.008851766586,XArbitraryCorrectedZVertical,0.00761714112,-0.006479344331,0.3975094855,-0.9175428748,0.00583438063,0.01912930794,-0.9997999668,27.95937538,29.99597168,-7.556030273,2,1441387.635,automotive,0,2018-02-25 17:36:29.179 -0500,null,0,0,0,0,null,1441387.056,0,-0.2774353,99.4372,0.0.0.0,100.110.18.251,1,1,0.7,-120,-120,0
2018-02-25 17:36:31.074 -0500,26,3DCCE5A0-AD64-4006-9610-DD3C35995850,my_iOS_device,1519598191,38.04160613,-78.49772198,172.3484,0,-1,32,30,-9999,1519598191,27.97133064,30.14215088,-7.696838379,306.9797363,316.7554016,15,1441389.529,0.01304626465,0.01945495605,-1.017944336,1441389.5,-0.01929833052,-0.01935372427,-0.007342335125,1441389.32,-0.8175892826,0.005835481656,-0.01913047564,0.04803775623,0.02682804875,-0.0003523898777,0.006387909409,-0.003412755206,-0.008851766586,XArbitraryCorrectedZVertical,0.00761714112,-0.006479344331,0.3975094855,-0.9175428748,0.00583438063,0.01912930794,-0.9997999668,27.95937538,29.99597168,-7.556030273,2,1441387.635,automotive,0,2018-02-25 17:36:29.179 -0500,null,0,0,0,0,null,1441387.056,0,-0.2774353,99.4372,0.0.0.0,100.110.18.251,1,1,0.7,-120,-120,0
2018-02-25 17:36:31.134 -0500,27,3DCCE5A0-AD64-4006-9610-DD3C35995850,my_iOS_device,1519598191,38.04160613,-78.49772198,172.3484,0,-1,32,30,-9999,1519598191,27.90090561,30.61303711,-7.49206543,307.0173645,316.7930298,15,1441389.589,0.01675415039,0.01692199707,-1.014404297,1441389.56,-0.006330866543,-0.001077248661,-0.02131674031,1441389.32,-0.8175892826,0.005835481656,-0.01913047564,0.04803775623,0.02682804875,-0.0003523898777,0.006387909409,-0.003412755206,-0.008851766586,XArbitraryCorrectedZVertical,0.00761714112,-0.006479344331,0.3975094855,-0.9175428748,0.00583438063,0.01912930794,-0.9997999668,27.95937538,29.99597168,-7.556030273,2,1441387.635,automotive,0,2018-02-25 17:36:29.179 -0500,null,0,0,0,0,null,1441387.056,0,-0.2774353,99.4372,0.0.0.0,100.110.18.251,1,1,0.7,-120,-120,0
2018-02-25 17:36:31.193 -0500,28,3DCCE5A0-AD64-4006-9610-DD3C35995850,my_iOS_device,1519598191,38.04160613,-78.49772198,172.3484,0,-1,32,30,-9999,1519598191,27.8387928,29.99514771,-7.420349121,307.0541687,316.829834,15,1441389.648,0.01583862305,0.01657104492,-0.9978179932,1441389.62,-0.008563660801,-0.003194461728,4.55E-05,1441389.32,-0.8175892826,0.005835481656,-0.01913047564,0.04803775623,0.02682804875,-0.0003523898777,0.006387909409,-0.003412755206,-0.008851766586,XArbitraryCorrectedZVertical,0.00761714112,-0.006479344331,0.3975094855,-0.9175428748,0.00583438063,0.01912930794,-0.9997999668,27.95937538,29.99597168,-7.556030273,2,1441387.635,automotive,0,2018-02-25 17:36:29.179 -0500,null,0,0,0,0,null,1441387.056,0,-0.2774353,99.4372,0.0.0.0,100.110.18.251,1,1,0.7,-120,-120,0
2018-02-25 17:36:31.255 -0500,29,3DCCE5A0-AD64-4006-9610-DD3C35995850,my_iOS_device,1519598191,38.04160613,-78.49772198,172.3484,0,-1,32,30,-9999,1519598191,28.08948326,30.52961731,-7.614013672,307.0659485,316.8416138,15,1441389.708,0.01333618164,0.02195739746,-1.017501831,1441389.68,-0.01069312441,-0.004267981963,-0.003144660615,1441389.32,-0.8175892826,0.005835481656,-0.01913047564,0.04803775623,0.02682804875,-0.0003523898777,0.006387909409,-0.003412755206,-0.008851766586,XArbitraryCorrectedZVertical,0.00761714112,-0.006479344331,0.3975094855,-0.9175428748,0.00583438063,0.01912930794,-0.9997999668,27.95937538,29.99597168,-7.556030273,2,1441387.635,automotive,0,2018-02-25 17:36:29.179 -0500,null,0,0,0,0,null,1441388.077,0,-0.2774353,99.4372,0.0.0.0,100.110.18.251,1,1,0.7,-120,-120,0
2018-02-25 17:36:31.313 -0500,30,3DCCE5A0-AD64-4006-9610-DD3C35995850,my_iOS_device,1519598191,38.04160613,-78.49772198,172.3484,0,-1,32,30,-9999,1519598191,28.02625084,30.26605225,-7.473327637,307.0738525,316.8495178,15,1441389.768,0.0200958252,0.02209472656,-1.008377075,1441389.739,-0.006426740343,-0.007535946937,-0.00529143477,1441389.32,-0.8175892826,0.005835481656,-0.01913047564,0.04803775623,0.02682804875,-0.0003523898777,0.006387909409,-0.003412755206,-0.008851766586,XArbitraryCorrectedZVertical,0.00761714112,-0.006479344331,0.3975094855,-0.9175428748,0.00583438063,0.01912930794,-0.9997999668,27.95937538,29.99597168,-7.556030273,2,1441387.635,automotive,0,2018-02-25 17:36:29.179 -0500,null,0,0,0,0,null,1441388.077,0,-0.2774353,99.4372,0.0.0.0,100.110.18.251,1,1,0.7,-120,-120,0
2018-02-25 17:36:31.377 -0500,31,3DCCE5A0-AD64-4006-9610-DD3C35995850,my_iOS_device,1519598191,38.04160613,-78.49772198,172.3484,0,-1,32,30,-9999,1519598191,27.97863007,30.04711914,-7.301391602,307.101593,316.8772583,15,1441389.827,0.01522827148,0.01443481445,-0.995010376,1441389.799,-0.007493070043,-0.00536600328,-0.00315664484,1441389.32,-0.8175892826,0.005835481656,-0.01913047564,0.04803775623,0.02682804875,-0.0003523898777,0.006387909409,-0.003412755206,-0.008851766586,XArbitraryCorrectedZVertical,0.00761714112,-0.006479344331,0.3975094855,-0.9175428748,0.00583438063,0.01912930794,-0.9997999668,27.95937538,29.99597168,-7.556030273,2,1441387.635,automotive,0,2018-02-25 17:36:29.179 -0500,null,0,0,0,0,null,1441388.077,0,-0.2774353,99.4372,0.0.0.0,100.110.18.251,1,1,0.7,-120,-120,0
2018-02-25 17:36:31.432 -0500,32,3DCCE5A0-AD64-4006-9610-DD3C35995850,my_iOS_device,1519598191,38.04160613,-78.49772198,172.3484,0,-1,32,30,-9999,1519598191,28.14091873,30.30349731,-7.22869873,307.104126,316.8797913,15,1441389.887,0.0147857666,0.02235412598,-1.017654419,1441389.859,-0.007478156341,-0.003206712269,-0.004228833495,1441389.32,-0.8175892826,0.005835481656,-0.01913047564,0.04803775623,0.02682804875,-0.0003523898777,0.006387909409,-0.003412755206,-0.008851766586,XArbitraryCorrectedZVertical,0.00761714112,-0.006479344331,0.3975094855,-0.9175428748,0.00583438063,0.01912930794,-0.9997999668,27.95937538,29.99597168,-7.556030273,2,1441387.635,automotive,0,2018-02-25 17:36:29.179 -0500,null,0,0,0,0,null,1441388.077,0,-0.2774353,99.4372,0.0.0.0,100.110.18.251,1,1,0.7,-120,-120,0
2018-02-25 17:36:31.492 -0500,33,3DCCE5A0-AD64-4006-9610-DD3C35995850,my_iOS_device,1519598191,38.04160613,-78.49772198,172.3484,0,-1,32,30,-9999,1519598191,28.14252281,30.08847046,-7.442871094,307.1038208,316.8794861,15,1441389.947,0.01696777344,0.02024841309,-1.008636475,1441389.918,-0.005350823262,-0.004297276735,-0.003168629065,1441389.32,-0.8175892826,0.005835481656,-0.01913047564,0.04803775623,0.02682804875,-0.0003523898777,0.006387909409,-0.003412755206,-0.008851766586,XArbitraryCorrectedZVertical,0.00761714112,-0.006479344331,0.3975094855,-0.9175428748,0.00583438063,0.01912930794,-0.9997999668,27.95937538,29.99597168,-7.556030273,2,1441387.635,automotive,0,2018-02-25 17:36:29.179 -0500,null,0,0,0,0,null,1441388.077,0,-0.2774353,99.4372,0.0.0.0,100.110.18.251,1,1,0.7,-120,-120,0
2018-02-25 17:36:31.552 -0500,34,3DCCE5A0-AD64-4006-9610-DD3C35995850,my_iOS_device,1519598191,38.04160613,-78.49772198,172.3484,0,-1,32,30,-9999,1519598192,28.1300087,30.19177246,-7.380004883,307.1070557,316.8827209,15,1441390.007,0.01649475098,0.0171661377,-1.003158569,1441389.978,-0.007563377496,-0.02049382354,-0.004190483975,1441389.32,-0.8175892826,0.005835481656,-0.01913047564,0.04803775623,0.02682804875,-0.0003523898777,0.006387909409,-0.003412755206,-0.008851766586,XArbitraryCorrectedZVertical,0.00761714112,-0.006479344331,0.3975094855,-0.9175428748,0.00583438063,0.01912930794,-0.9997999668,27.95937538,29.99597168,-7.556030273,2,1441387.635,automotive,0,2018-02-25 17:36:29.179 -0500,null,0,0,0,0,null,1441388.077,0,-0.2774353,99.4372,0.0.0.0,100.110.18.251,1,1,0.7,-120,-120,0
2018-02-25 17:36:31.611 -0500,35,3DCCE5A0-AD64-4006-9610-DD3C35995850,my_iOS_device,1519598191,38.04160613,-78.49772198,172.3484,0,-1,32,30,-9999,1519598192,28.1160183,30.10523987,-7.598083496,307.1107483,316.8864136,15,1441390.066,0.02014160156,0.01960754395,-1.01612854,1441390.038,-0.0095671399,0.01085877303,0.001086569725,1441389.32,-0.8175892826,0.005835481656,-0.01913047564,0.04803775623,0.02682804875,-0.0003523898777,0.006387909409,-0.003412755206,-0.008851766586,XArbitraryCorrectedZVertical,0.00761714112,-0.006479344331,0.3975094855,-0.9175428748,0.00583438063,0.01912930794,-0.9997999668,27.95937538,29.99597168,-7.556030273,2,1441387.635,automotive,0,2018-02-25 17:36:29.179 -0500,null,0,0,0,0,null,1441388.077,0,-0.2774353,99.4372,0.0.0.0,100.110.18.251,1,1,0.7,-120,-120,0
2018-02-25 17:36:31.671 -0500,36,3DCCE5A0-AD64-4006-9610-DD3C35995850,my_iOS_device,1519598191,38.04160613,-78.49772198,172.3484,0,-1,32,30,-9999,1519598192,28.1482563,30.07719421,-7.411499023,307.1105042,316.8861694,15,1441390.126,0.01530456543,0.01928710938,-0.9960632324,1441390.097,-0.007497331101,-0.005364405384,-0.002089249875,1441389.32,-0.8175892826,0.005835481656,-0.01913047564,0.04803775623,0.02682804875,-0.0003523898777,0.006387909409,-0.003412755206,-0.008851766586,XArbitraryCorrectedZVertical,0.00761714112,-0.006479344331,0.3975094855,-0.9175428748,0.00583438063,0.01912930794,-0.9997999668,27.95937538,29.99597168,-7.556030273,2,1441387.635,automotive,0,2018-02-25 17:36:29.179 -0500,null,0,0,0,0,null,1441388.077,0,-0.2774353,99.4372,0.0.0.0,100.110.18.251,1,1,0.7,-120,-120,0
2018-02-25 17:36:31.735 -0500,37,3DCCE5A0-AD64-4006-9610-DD3C35995850,my_iOS_device,1519598191,38.04160613,-78.49772198,172.3484,0,-1,32,30,-9999,1519598192,28.27622795,30.50694275,-7.184020996,307.101532,316.8771973,15,1441390.186,0.005020141602,0.01542663574,-1.003082275,1441390.157,-0.006473611978,-0.007518370073,0.006449909844,1441389.32,-0.8175892826,0.005835481656,-0.01913047564,0.04803775623,0.02682804875,-0.0003523898777,0.006387909409,-0.003412755206,-0.008851766586,XArbitraryCorrectedZVertical,0.00761714112,-0.006479344331,0.3975094855,-0.9175428748,0.00583438063,0.01912930794,-0.9997999668,27.95937538,29.99597168,-7.556030273,2,1441387.635,automotive,0,2018-02-25 17:36:29.179 -0500,null,0,0,0,0,null,1441388.077,0,-0.2774353,99.4372,0.0.0.0,100.110.18.251,1,1,0.7,-120,-120,0
2018-02-25 17:36:31.791 -0500,38,3DCCE5A0-AD64-4006-9610-DD3C35995850,my_iOS_device,1519598191,38.04160613,-78.49772198,172.3484,0,-1,32,30,-9999,1519598192,28.22468948,30.42027283,-7.084411621,307.0985413,316.8742065,15,1441390.245,0.02374267578,0.02252197266,-1.020767212,1441390.217,-0.007500526894,-0.004280765136,4.31E-05,1441389.32,-0.8175892826,0.005835481656,-0.01913047564,0.04803775623,0.02682804875,-0.0003523898777,0.006387909409,-0.003412755206,-0.008851766586,XArbitraryCorrectedZVertical,0.00761714112,-0.006479344331,0.3975094855,-0.9175428748,0.00583438063,0.01912930794,-0.9997999668,27.95937538,29.99597168,-7.556030273,2,1441387.635,automotive,0,2018-02-25 17:36:29.179 -0500,null,0,0,0,0,null,1441388.077,0,-0.2774353,99.4372,0.0.0.0,100.110.18.251,1,1,0.7,-120,-120,0
2018-02-25 17:36:31.850 -0500,39,3DCCE5A0-AD64-4006-9610-DD3C35995850,my_iOS_device,1519598191,38.04160613,-78.49772198,172.3484,0,-1,32,30,-9999,1519598192,28.11261177,30.17631531,-7.055541992,307.0919495,316.8676147,15,1441390.305,0.04011535645,0.01791381836,-1.002258301,1441390.276,-0.008545551306,-0.002118810963,-0.003159041685,1441389.32,-0.8175892826,0.005835481656,-0.01913047564,0.04803775623,0.02682804875,-0.0003523898777,0.006387909409,-0.003412755206,-0.008851766586,XArbitraryCorrectedZVertical,0.00761714112,-0.006479344331,0.3975094855,-0.9175428748,0.00583438063,0.01912930794,-0.9997999668,27.95937538,29.99597168,-7.556030273,2,1441387.635,automotive,0,2018-02-25 17:36:29.179 -0500,null,0,0,0,0,null,1441388.077,0,-0.2774353,99.4372,0.0.0.0,100.110.18.251,1,1,0.7,-120,-120,0
2018-02-25 17:36:31.910 -0500,40,3DCCE5A0-AD64-4006-9610-DD3C35995850,my_iOS_device,1519598191,38.04160613,-78.49772198,172.3484,0,-1,32,30,-9999,1519598192,28.41438103,30.03721619,-6.894775391,307.0892944,316.8649597,15,1441390.365,0.03323364258,0.02049255371,-1.012985229,1441390.336,-0.007447263672,-0.002135855194,-0.01063560013,1441389.32,-0.8175892826,0.005835481656,-0.01913047564,0.04803775623,0.02682804875,-0.0003523898777,0.006387909409,-0.003412755206,-0.008851766586,XArbitraryCorrectedZVertical,0.00761714112,-0.006479344331,0.3975094855,-0.9175428748,0.00583438063,0.01912930794,-0.9997999668,27.95937538,29.99597168,-7.556030273,2,1441387.635,automotive,0,2018-02-25 17:36:29.179 -0500,null,0,0,0,0,null,1441388.077,0,-0.2774353,99.4372,0.0.0.0,100.110.18.251,1,1,0.7,-120,-120,0
2018-02-25 17:36:32.013 -0500,41,3DCCE5A0-AD64-4006-9610-DD3C35995850,my_iOS_device,1519598191,38.04160613,-78.49772198,172.3484,0,-1,32,30,-9999,1519598192,29.45119858,30.30361938,-6.092651367,307.0708313,316.8464966,15,1441390.424,-0.01976013184,0.0212097168,-1.003921509,1441390.396,-0.003208576481,-0.00322855019,-0.00318061329,1441389.32,-0.8175892826,0.005835481656,-0.01913047564,0.04803775623,0.02682804875,-0.0003523898777,0.006387909409,-0.003412755206,-0.008851766586,XArbitraryCorrectedZVertical,0.00761714112,-0.006479344331,0.3975094855,-0.9175428748,0.00583438063,0.01912930794,-0.9997999668,27.95937538,29.99597168,-7.556030273,2,1441387.635,automotive,0,2018-02-25 17:36:29.179 -0500,null,0,0,0,0,null,1441388.077,0,-0.2774353,99.4372,0.0.0.0,100.110.18.251,1,1,0.7,-120,-120,0
2018-02-25 17:36:32.029 -0500,42,3DCCE5A0-AD64-4006-9610-DD3C35995850,my_iOS_device,1519598191,38.04160613,-78.49772198,172.3484,0,-1,32,30,-9999,1519598192,29.82396889,30.59490967,-5.607177734,307.0466309,316.8222961,15,1441390.484,0.01837158203,0.01495361328,-0.9936676025,1441390.456,-0.006458698276,-0.009688846362,5.03E-05,1441389.32,-0.8175892826,0.005835481656,-0.01913047564,0.04803775623,0.02682804875,-0.0003523898777,0.006387909409,-0.003412755206,-0.008851766586,XArbitraryCorrectedZVertical,0.00761714112,-0.006479344331,0.3975094855,-0.9175428748,0.00583438063,0.01912930794,-0.9997999668,27.95937538,29.99597168,-7.556030273,2,1441387.635,automotive,0,2018-02-25 17:36:29.179 -0500,null,0,0,0,0,null,1441388.077,0,-0.2774353,99.4372,0.0.0.0,100.110.18.251,1,1,0.7,-120,-120,0
2018-02-25 17:36:32.091 -0500,43,3DCCE5A0-AD64-4006-9610-DD3C35995850,my_iOS_device,1519598191,38.04160613,-78.49772198,172.3484,0,-1,32,30,-9999,1519598192,29.71663666,30.51060486,-5.734863281,307.033783,316.8094482,15,1441390.544,0.01620483398,0.02143859863,-1.020431519,1441390.515,-0.01069312441,-0.004267981963,-0.003144660615,1441389.32,-0.8175892826,0.005835481656,-0.01913047564,0.04803775623,0.02682804875,-0.0003523898777,0.006387909409,-0.003412755206,-0.008851766586,XArbitraryCorrectedZVertical,0.00761714112,-0.006479344331,0.3975094855,-0.9175428748,0.00583438063,0.01912930794,-0.9997999668,27.95937538,29.99597168,-7.556030273,2,1441387.635,automotive,0,2018-02-25 17:36:29.179 -0500,null,0,0,0,0,null,1441388.077,0,-0.2774353,99.4372,0.0.0.0,100.110.18.251,1,1,0.7,-120,-120,0
2018-02-25 17:36:32.148 -0500,44,3DCCE5A0-AD64-4006-9610-DD3C35995850,my_iOS_device,1519598191,38.04160613,-78.49772198,172.3484,0,-1,32,30,-9999,1519598192,29.78002357,30.38435364,-5.66583252,307.0149231,316.7905884,15,1441390.603,0.0168762207,0.01965332031,-1.011901855,1441390.575,-0.007473895283,-0.003208310165,-0.00529622846,1441389.32,-0.8175892826,0.005835481656,-0.01913047564,0.04803775623,0.02682804875,-0.0003523898777,0.006387909409,-0.003412755206,-0.008851766586,XArbitraryCorrectedZVertical,0.00761714112,-0.006479344331,0.3975094855,-0.9175428748,0.00583438063,0.01912930794,-0.9997999668,27.95937538,29.99597168,-7.556030273,2,1441387.635,automotive,0,2018-02-25 17:36:29.179 -0500,null,0,0,0,0,null,1441388.077,0,-0.2774353,99.4372,0.0.0.0,100.110.18.251,1,1,0.7,-120,-120,0
2018-02-25 17:36:32.221 -0500,45,3DCCE5A0-AD64-4006-9610-DD3C35995850,my_iOS_device,1519598191,38.04160613,-78.49772198,172.3484,0,-1,32,30,-9999,1519598192,29.90135193,30.40844727,-5.502075195,306.9802856,316.7559509,15,1441390.663,0.01480102539,0.01817321777,-1.002182007,1441390.635,-0.009614011535,-0.002112952009,-0.003154247995,1441389.32,-0.8175892826,0.005835481656,-0.01913047564,0.04803775623,0.02682804875,-0.0003523898777,0.006387909409,-0.003412755206,-0.008851766586,XArbitraryCorrectedZVertical,0.00761714112,-0.006479344331,0.3975094855,-0.9175428748,0.00583438063,0.01912930794,-0.9997999668,27.95937538,29.99597168,-7.556030273,2,1441387.635,automotive,0,2018-02-25 17:36:29.179 -0500,null,0,0,0,0,null,1441388.232,0,-0.2747955,99.43716,0.0.0.0,100.110.18.251,1,1,0.7,-120,-120,0
2018-02-25 17:36:32.344 -0500,46,3DCCE5A0-AD64-4006-9610-DD3C35995850,my_iOS_device,1519598191,38.04160613,-78.49772198,172.3484,0,-1,32,30,-9999,1519598192,29.81225395,30.70367432,-5.348693848,306.9690247,316.7446899,15,1441390.723,0.01049804688,0.02238464355,-1.013015747,1441390.694,-0.007492004779,-0.00428396093,-0.00209164672,1441389.32,-0.8175892826,0.005835481656,-0.01913047564,0.04803775623,0.02682804875,-0.0003523898777,0.006387909409,-0.003412755206,-0.008851766586,XArbitraryCorrectedZVertical,0.00761714112,-0.006479344331,0.3975094855,-0.9175428748,0.00583438063,0.01912930794,-0.9997999668,27.95937538,29.99597168,-7.556030273,2,1441387.635,automotive,0,2018-02-25 17:36:29.179 -0500,null,0,0,0,0,null,1441388.232,0,-0.2747955,99.43716,0.0.0.0,100.110.18.251,1,1,0.7,-120,-120,0
2018-02-25 17:36:32.346 -0500,47,3DCCE5A0-AD64-4006-9610-DD3C35995850,my_iOS_device,1519598191,38.04160613,-78.49772198,172.3484,0,-1,32,30,-9999,1519598192,29.81225395,30.70367432,-5.348693848,306.9690247,316.7446899,15,1441390.783,0.01513671875,0.01986694336,-0.9940948486,1441390.754,-0.005385976989,-0.009696303213,-0.00102185491,1441389.32,-0.8175892826,0.005835481656,-0.01913047564,0.04803775623,0.02682804875,-0.0003523898777,0.006387909409,-0.003412755206,-0.008851766586,XArbitraryCorrectedZVertical,0.00761714112,-0.006479344331,0.3975094855,-0.9175428748,0.00583438063,0.01912930794,-0.9997999668,27.95937538,29.99597168,-7.556030273,2,1441387.635,automotive,0,2018-02-25 17:36:29.179 -0500,null,0,0,0,0,null,1441388.232,0,-0.2747955,99.43716,0.0.0.0,100.110.18.251,1,1,0.7,-120,-120,0
2018-02-25 17:36:32.387 -0500,48,3DCCE5A0-AD64-4006-9610-DD3C35995850,my_iOS_device,1519598191,38.04160613,-78.49772198,172.3484,0,-1,32,30,-9999,1519598192,29.71004677,30.37739563,-5.686828613,306.9457703,316.7214355,15,1441390.842,0.01312255859,0.0168762207,-1.008346558,1441390.814,-0.007473895283,-0.003208310165,-0.00529622846,1441389.32,-0.8175892826,0.005835481656,-0.01913047564,0.04803775623,0.02682804875,-0.0003523898777,0.006387909409,-0.003412755206,-0.008851766586,XArbitraryCorrectedZVertical,0.00761714112,-0.006479344331,0.3975094855,-0.9175428748,0.00583438063,0.01912930794,-0.9997999668,27.95937538,29.99597168,-7.556030273,2,1441387.635,automotive,0,2018-02-25 17:36:29.179 -0500,null,0,0,0,0,null,1441388.232,0,-0.2747955,99.43716,0.0.0.0,100.110.18.251,1,1,0.7,-120,-120,0
2018-02-25 17:36:32.447 -0500,49,3DCCE5A0-AD64-4006-9610-DD3C35995850,my_iOS_device,1519598191,38.04160613,-78.49772198,172.3484,0,-1,32,30,-9999,1519598192,29.83462334,30.03494263,-5.996459961,306.922699,316.6983643,15,1441390.902,0.01341247559,0.02105712891,-1.018508911,1441390.873,-0.007487743721,-0.004285558826,-0.003159041685,1441390.877,-0.7867010389,0.01472992942,-0.0192500736,0.000851450488,4.93E-05,-0.001238468336,0.0003642737865,6.87E-05,-0.009799957275,XArbitraryCorrectedZVertical,-0.006066869013,0.01049110387,-0.3833225369,0.9235349894,0.01472666766,0.01924888417,-0.9997062683,29.83462334,30.03494263,-5.996459961,2,1441387.635,automotive,0,2018-02-25 17:36:29.179 -0500,null,0,0,0,0,null,1441388.232,0,-0.2747955,99.43716,0.0.0.0,100.110.18.251,1,1,0.7,-120,-120,0
2018-02-25 17:36:32.507 -0500,50,3DCCE5A0-AD64-4006-9610-DD3C35995850,my_iOS_device,1519598191,38.04160613,-78.49772198,172.3484,0,-1,32,30,-9999,1519598192,29.97180367,29.96113586,-5.885681152,306.9065247,316.6821899,15,1441390.962,0.01803588867,0.01803588867,-0.9980010986,1441390.933,-0.004288754619,-0.006465622494,-0.00423602403,1441390.947,-0.7866620535,0.01475500866,-0.01921282816,-0.00131387217,-0.002100928221,-0.001249895431,0.0001713447273,0.002577904612,-0.01576578617,XArbitraryCorrectedZVertical,-0.006045067217,0.01049542986,-0.3833045363,0.9235426188,0.01475175004,0.01921164617,-0.9997066259,29.88950348,30.17549133,-5.892272949,2,1441387.635,automotive,0,2018-02-25 17:36:29.179 -0500,null,0,0,0,0,null,1441388.232,0,-0.2747955,99.43716,0.0.0.0,100.110.18.251,1,1,0.7,-120,-120,0
2018-02-25 17:36:32.567 -0500,51,3DCCE5A0-AD64-4006-9610-DD3C35995850,my_iOS_device,1519598191,38.04160613,-78.49772198,172.3484,0,-1,32,30,-9999,1519598193,29.97373199,29.95306396,-5.563964844,306.8728638,316.6485291,15,1441391.021,0.0140838623,0.02001953125,-1.012451172,1441390.993,-0.00748987425,-0.006449643528,-0.005289037925,1441391.016,-0.7858124056,0.01492908256,-0.01944875325,0.0008279224858,0.002225352451,-0.0002168272622,-0.003710495308,0.003165997565,-0.01951134205,XArbitraryCorrectedZVertical,-0.006125166547,0.0106184138,-0.3829131126,0.923702836,0.01492570434,0.01944752783,-0.9996994734,29.97373199,29.95306396,-5.563964844,2,1441387.635,automotive,0,2018-02-25 17:36:29.179 -0500,null,0,0,0,0,null,1441388.232,0,-0.2747955,99.43716,0.0.0.0,100.110.18.251,1,1,0.7,-120,-120,0
2018-02-25 17:36:32.626 -0500,52,3DCCE5A0-AD64-4006-9610-DD3C35995850,my_iOS_device,1519598193,38.04157189,-78.49769214,181.2157,0,-1,12,10,-9999,1519598193,30.00320625,30.02954102,-5.744262695,306.8512268,316.6268921,15,1441391.081,0.01391601563,0.02244567871,-1.012664795,1441391.052,-0.006424609814,-0.005371862235,-0.00316143853,1441391.051,-0.785792689,0.01561194106,-0.01909409419,0.001883404795,-0.001006543171,-0.001283515012,-0.001280458644,0.003688437864,-0.01566970348,XArbitraryCorrectedZVertical,-0.005830726121,0.01086585596,-0.3829054236,0.9237051606,0.01560846157,0.01909293421,-0.9996958971,29.88706589,30.02984619,-5.737548828,2,1441387.635,automotive,0,2018-02-25 17:36:29.179 -0500,null,0,0,0,0,null,1441388.232,0,-0.2747955,99.43716,0.0.0.0,100.110.18.251,1,1,0.7,-120,-120,0
2018-02-25 17:36:32.687 -0500,53,3DCCE5A0-AD64-4006-9610-DD3C35995850,my_iOS_device,1519598193,38.04157189,-78.49769214,181.2157,0,-1,12,10,-9999,1519598193,29.91639709,30.02198792,-5.587646484,306.8382874,316.6139526,15,1441391.141,0.0158996582,0.01739501953,-0.9947662354,1441391.112,-0.009640643146,-0.00751517428,-0.00314226377,1441391.121,-0.7859865649,0.01511164926,-0.01921117184,0.001874319743,-0.0009747557342,-0.0002183415927,0.002347769216,0.001953950152,-0.01041525602,XArbitraryCorrectedZVertical,-0.005979551002,0.01065778174,-0.3829936981,0.9236699939,0.01510828547,0.01920999028,-0.9997013211,29.91639709,30.02198792,-5.587646484,2,1441387.635,automotive,0,2018-02-25 17:36:29.179 -0500,null,0,0,0,0,null,1441388.232,0,-0.2747955,99.43716,0.0.0.0,100.110.18.251,1,1,0.7,-120,-120,0
2018-02-25 17:36:32.746 -0500,54,3DCCE5A0-AD64-4006-9610-DD3C35995850,my_iOS_device,1519598193,38.04157189,-78.49769214,181.2157,0,-1,12,10,-9999,1519598193,30.01922417,30.10232544,-5.691040039,306.8201599,316.5958252,15,1441391.2,0.01319885254,0.02088928223,-1.015670776,1441391.172,-0.006423544549,-0.004289819884,-0.00209644041,1441391.19,-0.7865331237,0.01487220048,-0.01931532141,0.0007936358452,-0.002020242624,-0.0002124782186,0.001061297953,0.0001866109669,-0.005485117435,XArbitraryCorrectedZVertical,-0.006070619449,0.01056879293,-0.3832455575,0.9235659242,0.01486887783,0.01931411959,-0.9997028708,29.90620422,30.02311707,-5.684997559,2,1441387.635,automotive,0,2018-02-25 17:36:29.179 -0500,null,0,0,0,0,null,1441388.232,0,-0.2747955,99.43716,0.0.0.0,100.110.18.251,1,1,0.7,-120,-120,0
2018-02-25 17:36:32.810 -0500,55,3DCCE5A0-AD64-4006-9610-DD3C35995850,my_iOS_device,1519598193,38.04157189,-78.49769214,181.2157,0,-1,12,10,-9999,1519598193,29.88568306,29.93339539,-5.604614258,306.8065796,316.5822449,15,1441391.26,0.01802062988,0.02047729492,-1.007583618,1441391.232,-0.006439523516,-0.007531153247,-0.002089249875,1441391.225,-0.7864647404,0.01480300235,-0.0193674324,-0.001358438283,-0.005243730266,-0.001264129765,-0.000197025016,0.002682728693,-0.01036787033,XArbitraryCorrectedZVertical,-0.006108305417,0.01054661162,-0.3832138479,0.9235790968,0.01479968522,0.0193662215,-0.9997029305,29.7817955,29.92059326,-5.746765137,2,1441387.635,automotive,0,2018-02-25 17:36:29.179 -0500,null,0,0,0,0,null,1441388.232,0,-0.2747955,99.43716,0.0.0.0,100.110.18.251,1,1,0.7,-120,-120,0
2018-02-25 17:36:32.865 -0500,56,3DCCE5A0-AD64-4006-9610-DD3C35995850,my_iOS_device,1519598193,38.04157189,-78.49769214,181.2157,0,-1,12,10,-9999,1519598193,30.02773666,30.02033997,-5.743591309,306.7752991,316.5509644,15,1441391.32,0.01924133301,0.01541137695,-1.001846313,1441391.291,-0.009623598915,-0.003191798566,-0.002084456185,1441391.295,-0.7865825946,0.01473149328,-0.019367445,-0.002419339027,-0.0009030885994,0.0008639108855,-0.001330981031,0.002896338701,-0.002508580685,XArbitraryCorrectedZVertical,-0.006121393293,0.01051395293,-0.3832680583,0.9235568643,0.01472819783,0.01936623454,-0.9997039437,30.11310387,30.19485474,-5.733337402,2,1441387.635,automotive,0,2018-02-25 17:36:29.179 -0500,null,0,0,0,0,null,1441388.232,0,-0.2747955,99.43716,0.0.0.0,100.110.18.251,1,1,0.7,-120,-120,0
2018-02-25 17:36:32.925 -0500,57,3DCCE5A0-AD64-4006-9610-DD3C35995850,my_iOS_device,1519598193,38.04157189,-78.49769214,181.2157,0,-1,12,10,-9999,1519598193,30.24474907,30.05200195,-5.587585449,306.7555847,316.53125,15,1441391.38,0.01387023926,0.0240020752,-1.018890381,1441391.351,-0.007498396365,-0.006446447735,-0.003154247995,1441391.365,-0.7863105364,0.01476335367,-0.01933963425,-0.00137344189,-0.004135933239,0.0008629332297,0.0004834737629,0.000711619854,0.002877891064,XArbitraryCorrectedZVertical,-0.006103876047,0.01052250713,-0.3831424713,0.9236090183,0.01476005651,0.01933842897,-0.9997040629,30.24474907,30.05200195,-5.587585449,2,1441387.635,automotive,0,2018-02-25 17:36:29.179 -0500,null,0,0,0,0,null,1441388.232,0,-0.2747955,99.43716,0.0.0.0,100.110.18.251,1,1,0.7,-120,-120,0
2018-02-25 17:36:32.985 -0500,58,3DCCE5A0-AD64-4006-9610-DD3C35995850,my_iOS_device,1519598193,38.04157189,-78.49769214,181.2157,0,-1,12,10,-9999,1519598193,30.07014084,29.98297119,-5.750244141,306.7418518,316.5175171,15,1441391.439,0.01475524902,0.02046203613,-0.9996490479,1441391.411,-0.006423544549,-0.004289819884,-0.00209644041,1441391.434,-0.786034829,0.01466622414,-0.01939464529,0.0008107866161,0.005593017675,-0.0002421077807,-0.0002586431801,-0.001601681113,0.00371748209,XArbitraryCorrectedZVertical,-0.006149334833,0.01048734039,-0.3830149472,0.9236619473,0.01466294006,0.01939342916,-0.9997044206,30.06414986,30.07203674,-5.926513672,2,1441387.635,automotive,0,2018-02-25 17:36:29.179 -0500,null,0,0,0,0,null,1441388.232,0,-0.2747955,99.43716,0.0.0.0,100.110.18.251,1,1,0.7,-120,-120,0
2018-02-25 17:36:33.044 -0500,59,3DCCE5A0-AD64-4006-9610-DD3C35995850,my_iOS_device,1519598193,38.04157189,-78.49769214,181.2157,0,-1,12,10,-9999,1519598193,29.91988564,30.04249573,-5.443237305,306.7211304,316.4967957,15,1441391.499,0.0295715332,0.01507568359,-0.9995574951,1441391.47,-0.007495200572,-0.003200320682,4.07E-05,1441391.469,-0.7859483138,0.01479732786,-0.01955224514,-0.001354751177,0.003455671482,0.004036535043,0.002784164622,-0.002354344353,-0.004679858685,XArbitraryCorrectedZVertical,-0.006197473966,0.01057778951,-0.3829756081,0.9236770272,0.01479395945,0.01955099963,-0.9996994138,29.91988564,30.04249573,-5.443237305,2,1441391.455,automotive,2,2018-02-25 17:36:33.000 -0500,null,0,0,0,0,null,1441388.232,0,-0.2747955,99.43716,0.0.0.0,100.110.18.251,1,1,0.7,-120,-120,0
2018-02-25 17:36:33.104 -0500,60,3DCCE5A0-AD64-4006-9610-DD3C35995850,my_iOS_device,1519598193,38.04157189,-78.49769214,181.2157,0,-1,12,10,-9999,1519598193,29.88844299,30.11112976,-5.706481934,306.7013245,316.4769897,15,1441391.559,0.01620483398,0.02070617676,-1.021286011,1441391.53,-0.009655556848,-0.009674465292,-0.002070075115,1441391.539,-0.7859115757,0.01474372476,-0.01961301841,-0.001342718955,0.001286582556,-0.001301527023,0.004653566517,-0.001820012927,-0.0107074976,XArbitraryCorrectedZVertical,-0.006236001384,0.01056455355,-0.382958591,0.9236838818,0.01474035531,0.01961176097,-0.9996989965,30.1256237,29.96708679,-5.521362305,2,1441391.455,automotive,2,2018-02-25 17:36:33.000 -0500,null,0,0,0,0,null,1441388.232,0,-0.2747955,99.43716,0.0.0.0,100.110.18.251,1,1,0.7,-120,-120,0
2018-02-25 17:36:33.164 -0500,61,3DCCE5A0-AD64-4006-9610-DD3C35995850,my_iOS_device,1519598193,38.04157189,-78.49769214,181.2157,0,-1,12,10,-9999,1519598193,29.84535789,29.75318909,-5.934326172,306.6751709,316.4508362,15,1441391.618,0.01429748535,0.01907348633,-0.9994812012,1441391.59,-0.007501592159,-0.005362807487,-0.00102185491,1441391.608,-0.7858332957,0.0149998848,-0.01950314452,-0.0003015147522,-0.005202100147,-0.001302154735,0.002017079853,0.001189010218,-0.01571404934,XArbitraryCorrectedZVertical,-0.006136621814,0.01066158805,-0.3829230666,0.9236981273,0.01499646995,0.01950190775,-0.9996973276,29.84535789,29.75318909,-5.934326172,2,1441391.455,automotive,2,2018-02-25 17:36:33.000 -0500,null,0,0,0,0,null,1441389.177,0,-0.2457275,99.43683,0.0.0.0,100.110.18.251,1,1,0.7,-120,-120,0
2018-02-25 17:36:33.223 -0500,62,3DCCE5A0-AD64-4006-9610-DD3C35995850,my_iOS_device,1519598193,38.04157189,-78.49769214,181.2157,0,-1,12,10,-9999,1519598193,30.15944099,29.87295532,-5.873168945,306.6559448,316.4316101,15,1441391.678,0.01481628418,0.02056884766,-1.015533447,1441391.649,-0.006408630847,-0.002130528872,-0.003168629065,1441391.643,-0.7855612492,0.01503512156,-0.01939768717,-0.0002513546497,0.005604099482,-0.0002645258792,-0.005693347193,5.85E-05,-0.005046606064,XArbitraryCorrectedZVertical,-0.006082616746,0.01065684948,-0.3827973306,0.9237507582,0.01503172703,0.01939647086,-0.9996988773,30.13432884,29.99505615,-5.805297852,2,1441391.455,automotive,2,2018-02-25 17:36:33.000 -0500,null,0,0,0,0,null,1441389.177,0,-0.2457275,99.43683,0.0.0.0,100.110.18.251,1,1,0.7,-120,-120,0
2018-02-25 17:36:33.283 -0500,63,3DCCE5A0-AD64-4006-9610-DD3C35995850,my_iOS_device,1519598193,38.04157189,-78.49769214,181.2157,0,-1,12,10,-9999,1519598193,29.8822422,29.8966217,-5.802856445,306.6444397,316.420105,15,1441391.738,0.01564025879,0.02236938477,-1.01234436,1441391.709,-0.005371063286,-0.007537012201,-0.002094043565,1441391.713,-0.7853898503,0.01509209667,-0.01937034734,0.002914659679,-0.001975462772,0.0007983280811,0.001406057738,0.002908695489,-0.01487362385,XArbitraryCorrectedZVertical,-0.006059998646,0.01067741308,-0.3827182651,0.9237835407,0.01508869231,0.01936913654,-0.9996985197,29.8822422,29.8966217,-5.802856445,2,1441391.455,automotive,2,2018-02-25 17:36:33.000 -0500,null,0,0,0,0,null,1441389.177,0,-0.2457275,99.43683,0.0.0.0,100.110.18.251,1,1,0.7,-120,-120,0
2018-02-25 17:36:33.342 -0500,64,3DCCE5A0-AD64-4006-9610-DD3C35995850,my_iOS_device,1519598193,38.04157189,-78.49769214,181.2157,0,-1,12,10,-9999,1519598193,29.98488808,29.79885864,-5.71887207,306.6256104,316.4012756,15,1441391.797,0.01625061035,0.01681518555,-0.9911346436,1441391.769,-0.005380650666,-0.008615858759,-0.001024251755,1441391.782,-0.7851074888,0.01512453728,-0.01944456122,0.002910172101,-0.00197276054,0.001851136098,-0.005553839728,0.001629050821,-0.01875126362,XArbitraryCorrectedZVertical,-0.006089583039,0.01070573553,-0.3825880885,0.9238368273,0.0151211014,0.01944333501,-0.9996966124,30.07518768,30.08137512,-5.830200195,2,1441391.455,automotive,2,2018-02-25 17:36:33.000 -0500,null,0,0,0,0,null,1441389.177,0,-0.2457275,99.43683,0.0.0.0,100.110.18.251,1,1,0.7,-120,-120,0
2018-02-25 17:36:33.402 -0500,65,3DCCE5A0-AD64-4006-9610-DD3C35995850,my_iOS_device,1519598193,38.04157189,-78.49769214,181.2157,0,-1,12,10,-9999,1519598193,29.97473526,30.32055664,-5.583374023,306.6158447,316.39151,15,1441391.857,-0.07148742676,0.01560974121,-1.007705688,1441391.828,-0.008752212606,-0.04317410233,-0.002000566611,1441391.852,-0.7853674894,0.01471205072,-0.01950822062,-0.001615712885,-0.04948136583,0.007305518258,-0.02436753362,-0.001654200256,-0.02394962311,XArbitraryCorrectedZVertical,-0.006196527742,0.01052817982,-0.3827070296,0.9237888455,0.01470872108,0.01950698346,-0.9997014999,29.83333588,30.15953064,-5.754089355,2,1441391.455,automotive,2,2018-02-25 17:36:33.000 -0500,null,0,0,0,0,null,1441389.177,0,-0.2457275,99.43683,0.0.0.0,100.110.18.251,1,1,0.7,-120,-120,0
2018-02-25 17:36:33.462 -0500,66,3DCCE5A0-AD64-4006-9610-DD3C35995850,my_iOS_device,1519598193,38.04157189,-78.49769214,181.2157,0,-1,12,10,-9999,1519598193,30.13119316,30.22982788,-5.938293457,306.6172485,316.3929138,15,1441391.917,0.01765441895,0.02015686035,-1.006591797,1441391.888,-0.005436044417,-0.0259141553,-0.00845766699,1441391.887,-0.7857011522,0.01473017492,-0.0195062828,0.0008693831041,0.0120766405,-0.003515661461,-0.04347439855,-0.00255253166,-0.01035422087,XArbitraryCorrectedZVertical,-0.006190406624,0.01053721365,-0.382861197,0.9237248898,0.01472683996,0.01950504631,-0.9997013211,30.14108467,30.21447754,-5.673278809,2,1441391.455,automotive,2,2018-02-25 17:36:33.000 -0500,null,0,0,0,0,null,1441389.177,0,-0.2457275,99.43683,0.0.0.0,100.110.18.251,1,1,0.7,-120,-120,0
2018-02-25 17:36:33.522 -0500,67,3DCCE5A0-AD64-4006-9610-DD3C35995850,my_iOS_device,1519598193,38.04157189,-78.49769214,181.2157,0,-1,12,10,-9999,1519598194,29.98194122,29.98951721,-5.796813965,306.6190796,316.3947449,15,1441391.976,0.001754760742,0.01614379883,-1.004959106,1441391.948,-0.005320995858,0.004351072589,1.44E-05,1441391.957,-0.7861916156,0.0142720857,-0.01951360028,-0.00456065964,-0.0008496292867,0.004012760706,-0.01680184342,0.0005834624171,-0.001909613609,XArbitraryCorrectedZVertical,-0.006278946064,0.01032857783,-0.3830862641,0.9236334562,0.01426888444,0.01951236278,-0.999707818,30.15222549,30.31445313,-5.722961426,2,1441391.455,automotive,2,2018-02-25 17:36:33.000 -0500,null,0,0,0,0,null,1441389.177,0,-0.2457275,99.43683,0.0.0.0,100.110.18.251,1,1,0.7,-120,-120,0
2018-02-25 17:36:33.582 -0500,68,3DCCE5A0-AD64-4006-9610-DD3C35995850,my_iOS_device,1519598193,38.04157189,-78.49769214,181.2157,0,-1,12,10,-9999,1519598194,30.03518867,30.03649902,-5.866394043,306.5988159,316.3744812,15,1441392.036,-0.001770019531,0.02426147461,-1.015884399,1441392.008,-0.007514375332,-0.0140175484,-0.008474444905,1441392.026,-0.7861035022,0.01412508562,-0.01947821987,-0.0002861265093,-0.006283353548,-0.002403019462,-0.00670616515,-0.0005866065621,0.002136707306,XArbitraryCorrectedZVertical,-0.006291214377,0.01025363989,-0.3830450773,0.9236512184,0.01412193663,0.01947698742,-0.9997105598,29.9623909,30.20895386,-5.819824219,2,1441391.455,automotive,2,2018-02-25 17:36:33.000 -0500,null,0,0,0,0,null,1441389.177,0,-0.2457275,99.43683,0.0.0.0,100.110.18.251,1,1,0.7,-120,-120,0
2018-02-25 17:36:33.641 -0500,69,3DCCE5A0-AD64-4006-9610-DD3C35995850,my_iOS_device,1519598193,38.04157189,-78.49769214,181.2157,0,-1,12,10,-9999,1519598194,30.0798893,30.2802887,-6.02947998,306.5853882,316.3610535,15,1441392.096,0.01441955566,0.02011108398,-0.9952545166,1441392.067,-0.005356149584,-0.001047953889,0.002161155225,1441392.061,-0.7859824464,0.01409642617,-0.0195550501,-0.0002599293366,0.00561416056,0.006110214163,0.0129147917,0.003609038889,-0.006790757179,XArbitraryCorrectedZVertical,-0.006332808174,0.0102547314,-0.382989198,0.923674047,0.01409326401,0.01955380291,-0.999709487,30.0798893,30.2802887,-6.02947998,2,1441391.455,automotive,2,2018-02-25 17:36:33.000 -0500,null,0,0,0,0,null,1441389.177,0,-0.2457275,99.43683,0.0.0.0,100.110.18.251,1,1,0.7,-120,-120,0
2018-02-25 17:36:33.701 -0500,70,3DCCE5A0-AD64-4006-9610-DD3C35995850,my_iOS_device,1519598193,38.04157189,-78.49769214,181.2157,0,-1,12,10,-9999,1519598194,29.91593933,30.15507507,-5.670959473,306.5651245,316.3407898,15,1441392.156,-0.02729797363,0.006103515625,-1.009399414,1441392.127,-0.007485613192,-0.006451241425,-0.00635643289,1441392.131,-0.7859993246,0.01456288596,-0.01960030423,-0.0002347119153,0.005605580285,-0.0002969459165,0.01115148701,-0.002768605947,-0.00515037775,XArbitraryCorrectedZVertical,-0.00626429636,0.01047887374,-0.3829984963,0.9236682653,0.01455957443,0.01959904842,-0.9997019172,29.84672356,30.12991333,-5.89642334,2,1441391.455,automotive,2,2018-02-25 17:36:33.000 -0500,null,0,0,0,0,null,1441389.177,0,-0.2457275,99.43683,0.0.0.0,100.110.18.251,1,1,0.7,-120,-120,0
2018-02-25 17:36:33.777 -0500,71,3DCCE5A0-AD64-4006-9610-DD3C35995850,my_iOS_device,1519598193,38.04157189,-78.49769214,181.2157,0,-1,12,10,-9999,1519598194,29.83765984,29.94218445,-5.574157715,306.5280151,316.3036804,15,1441392.215,0.05906677246,0.02764892578,-1.024093628,1441392.187,-0.007469634225,0.009779393839,0.009618538909,1441392.2,-0.7856463284,0.01512270917,-0.01962822376,-0.002311174292,0.0229136236,0.006079692394,0.02112040296,0.001216541976,0.006132245064,XArbitraryCorrectedZVertical,-0.006171881221,0.01074167527,-0.3828372657,0.9237326384,0.01511922013,0.01962696388,-0.9996930361,29.86719513,29.96798706,-5.693664551,2,1441391.455,automotive,2,2018-02-25 17:36:33.000 -0500,null,0,0,0,0,null,1441389.177,0,-0.2457275,99.43683,0.0.0.0,100.110.18.251,1,1,0.7,-120,-120,0
2018-02-25 17:36:33.820 -0500,72,3DCCE5A0-AD64-4006-9610-DD3C35995850,my_iOS_device,1519598193,38.04157189,-78.49769214,181.2157,0,-1,12,10,-9999,1519598194,29.99672318,30.24989319,-5.449584961,306.5252991,316.3009644,15,1441392.275,0.05177307129,0.017578125,-1.0050354,1441392.246,-0.006358563419,0.009757555918,-0.00106020443,1441392.27,-0.7858198107,0.01470630056,-0.0196057172,-0.0002600336447,0.003450923599,0.003977869637,0.01970562339,0.003360016271,0.001530766487,XArbitraryCorrectedZVertical,-0.006240278948,0.01054558624,-0.3829160929,0.9237016439,0.01470294409,0.01960446127,-0.9996997118,29.74007034,29.76853943,-5.911560059,2,1441391.455,automotive,2,2018-02-25 17:36:33.000 -0500,null,0,0,0,0,null,1441389.177,0,-0.2457275,99.43683,0.0.0.0,100.110.18.251,1,1,0.7,-120,-120,0
2018-02-25 17:36:33.880 -0500,73,3DCCE5A0-AD64-4006-9610-DD3C35995850,my_iOS_device,1519598193,38.04157189,-78.49769214,181.2157,0,-1,12,10,-9999,1519598194,29.76922035,30.03424072,-5.565246582,306.5113831,316.2870483,15,1441392.335,-0.008819580078,-0.01863098145,-1.318466187,1441392.306,-0.008626511403,-0.01940752013,-0.00418808713,1441392.305,-0.7858914275,0.01516296076,-0.01965528476,-0.005608341657,0.0002361694351,0.001872910885,-0.01181777567,-0.004273159429,-0.001132071018,XArbitraryCorrectedZVertical,-0.006175355986,0.01076620445,-0.3829506934,0.9236850739,0.0151594514,0.0196540188,-0.9996919036,29.76922035,30.03424072,-5.565246582,2,1441391.455,automotive,2,2018-02-25 17:36:33.000 -0500,null,0,0,0,0,null,1441389.177,0,-0.2457275,99.43683,0.0.0.0,100.110.18.251,1,1,0.7,-120,-120,0
