loggingTime(txt),loggingSample(N),identifierForVendor(txt),deviceID(txt),locationTimestamp_since1970(s),locationLatitude(WGS84),locationLongitude(WGS84),locationAltitude(m),locationSpeed(m/s),locationCourse(°),locationVerticalAccuracy(m),locationHorizontalAccuracy(m),locationFloor(Z),locationHeadingTimestamp_since1970(s),locationHeadingX(µT),locationHeadingY(µT),locationHeadingZ(µT),locationTrueHeading(°),locationMagneticHeading(°),locationHeadingAccuracy(°),accelerometerTimestamp_sinceReboot(s),accelerometerAccelerationX(G),accelerometerAccelerationY(G),accelerometerAccelerationZ(G),gyroTimestamp_sinceReboot(s),gyroRotationX(rad/s),gyroRotationY(rad/s),gyroRotationZ(rad/s),motionTimestamp_sinceReboot(s),motionYaw(rad),motionRoll(rad),motionPitch(rad),motionRotationRateX(rad/s),motionRotationRateY(rad/s),motionRotationRateZ(rad/s),motionUserAccelerationX(G),motionUserAccelerationY(G),motionUserAccelerationZ(G),motionAttitudeReferenceFrame(txt),motionQuaternionX(R),motionQuaternionY(R),motionQuaternionZ(R),motionQuaternionW(R),motionGravityX(G),motionGravityY(G),motionGravityZ(G),motionMagneticFieldX(µT),motionMagneticFieldY(µT),motionMagneticFieldZ(µT),motionMagneticFieldCalibrationAccuracy(Z),activityTimestamp_sinceReboot(s),activity(txt),activityActivityConfidence(Z),activityActivityStartDate(txt),pedometerStartDate(txt),pedometerNumberofSteps(N),pedometerDistance(m),pedometerFloorAscended(N),pedometerFloorDescended(N),pedometerEndDate(txt),altimeterTimestamp_sinceReboot(s),altimeterReset(bool),altimeterRelativeAltitude(m),altimeterPressure(kPa),IP_en0(txt),IP_pdp_ip0(txt),deviceOrientation(Z),batteryState(R),batteryLevel(Z),avAudioRecorderPeakPower(dB),avAudioRecorderAveragePower(dB),state(N)
2018-02-25 16:49:11.177 -0500,1,3DCCE5A0-AD64-4006-9610-DD3C35995850,my_iOS_device,1519595348,38.03568692,-78.49818918,153.2659,-1,-1,10,65,-9999,1519595351,44.85493469,-15.84474945,21.64550781,283.0351257,292.810791,180,1440553.506,0.005233764648,-0.0164642334,-1.005645752,1440553.479,-0.00960548942,0.002213619498,3.83E-05,1440553.477,0.1466087522,-0.01047032007,0.01201799715,-0.003361900337,0.008267946541,0.002282696543,0.0007800422609,0.0003447346389,-0.002919375896,XArbitraryCorrectedZVertical,0.006376152392,-0.004780900665,0.07320506126,0.9972848296,-0.01046937238,-0.01201770827,-0.9998729825,44.85493469,-15.84474945,21.64550781,0,1440551.099,automotive,0,2018-02-25 16:49:08.760 -0500,null,0,0,0,0,null,1440551.526,0,-0.5443268,99.77307,10.41.2.84,100.110.18.251,1,1,0.7,-41.83165,-42.08227,0
2018-02-25 16:49:11.233 -0500,2,3DCCE5A0-AD64-4006-9610-DD3C35995850,my_iOS_device,1519595348,38.03568692,-78.49818918,153.2659,-1,-1,10,65,-9999,1519595351,44.77349472,-15.78960419,21.63067627,283.0245361,292.8002014,180,1440553.566,-0.006439208984,-0.009887695313,-1.009552002,1440553.539,-0.008598814528,-0.004263720905,0.007519701654,1440553.546,0.146897507,-0.009795209187,0.01172608045,-0.003416029271,0.003958769143,0.0108323209,0.05598273501,0.006064800546,-0.01040112972,XArbitraryCorrectedZVertical,0.006206522696,-0.004454059061,0.07335197181,0.9972766042,-0.009794379584,-0.01172581129,-0.9998832941,44.77349472,-15.78960419,21.63067627,0,1440551.099,automotive,0,2018-02-25 16:49:08.760 -0500,null,0,0,0,0,null,1440551.526,0,-0.5443268,99.77307,10.41.2.84,100.110.18.251,1,1,0.7,-28.49466,-28.49466,0
2018-02-25 16:49:11.289 -0500,3,3DCCE5A0-AD64-4006-9610-DD3C35995850,my_iOS_device,1519595348,38.03568692,-78.49818918,153.2659,-1,-1,10,65,-9999,1519595351,45.24604034,-15.70588684,22.2366333,283.0236206,292.7992859,180,1440553.626,0.01826477051,-0.01077270508,-1.012573242,1440553.598,-0.004529504382,-0.05183789799,0.0001342233189,1440553.616,0.1468934542,-0.009482535343,0.0116685239,0.0007874057628,-0.01768725924,0.001251430018,-0.2027985305,0.001154953614,-0.002600193024,XArbitraryCorrectedZVertical,0.006166345906,-0.004300272558,0.07335106283,0.9972776771,-0.009481747635,-0.01166825928,-0.9998869896,45.43990707,-15.72091675,22.47564697,0,1440551.099,automotive,0,2018-02-25 16:49:08.760 -0500,null,0,0,0,0,null,1440551.526,0,-0.5443268,99.77307,10.41.2.84,100.110.18.251,1,1,0.7,-16.52837,-16.52837,0
2018-02-25 16:49:11.349 -0500,4,3DCCE5A0-AD64-4006-9610-DD3C35995850,my_iOS_device,1519595348,38.03568692,-78.49818918,153.2659,-1,-1,10,65,-9999,1519595351,45.33500671,-15.73683167,22.38409424,283.0245056,292.8001709,180,1440553.686,-0.01194763184,-0.01045227051,-1.001113892,1440553.658,-0.004268514595,-0.003225887028,-0.00531060953,1440553.651,0.1468353397,-0.009035930176,0.01164135003,0.001957925037,0.001752697397,0.0001387745142,-0.003812705167,0.005018772557,-0.006029009819,XArbitraryCorrectedZVertical,0.006136297714,-0.004078753293,0.07332352549,0.9972808361,-0.009035195224,-0.01164108701,-0.9998914003,45.33500671,-15.73683167,22.38409424,0,1440551.099,automotive,0,2018-02-25 16:49:08.760 -0500,null,0,0,0,0,null,1440551.526,0,-0.5443268,99.77307,10.41.2.84,100.110.18.251,1,1,0.7,-16.52837,-18.4295,0
2018-02-25 16:49:11.408 -0500,5,3DCCE5A0-AD64-4006-9610-DD3C35995850,my_iOS_device,1519595348,38.03568692,-78.49818918,153.2659,-1,-1,10,65,-9999,1519595351,45.5294838,-15.6009903,22.37792969,283.026001,292.8016663,180,1440553.745,-0.0111541748,-0.01620483398,-1.013336182,1440553.718,-0.006444849838,-0.008611597701,-0.00208685303,1440553.72,0.1468231953,-0.009812189604,0.01167465431,-0.0001816819422,0.0006828662008,-0.0009188894182,0.002120934427,0.001267895103,-0.00388520956,XArbitraryCorrectedZVertical,0.006181336008,-0.004464643076,0.07331499457,0.9972795248,-0.009811363183,-0.01167438924,-0.9998837113,45.62133408,-15.74318695,22.57519531,0,1440551.099,automotive,0,2018-02-25 16:49:08.760 -0500,null,0,0,0,0,null,1440551.526,0,-0.5443268,99.77307,10.41.2.84,100.110.18.251,1,1,0.7,-16.52837,-21.67589,0
2018-02-25 16:49:11.472 -0500,6,3DCCE5A0-AD64-4006-9610-DD3C35995850,my_iOS_device,1519595351,38.03569692,-78.49814737,152.9786,-1,-1,10,65,-9999,1519595351,45.45680618,-15.38653564,22.89135742,283.026947,292.8026123,180,1440553.805,-0.01139831543,-0.008850097656,-1.003265381,1440553.778,-0.007507983745,-0.007525294292,-0.002084456185,1440553.79,0.1468020763,-0.009837611722,0.0117049009,0.000884547364,-0.00148704648,-0.003053820459,-3.57E-05,-0.001951982267,-0.01467376947,XArbitraryCorrectedZVertical,0.006197302602,-0.004476275295,0.07330430299,0.9972801805,-0.009836778976,-0.01170463394,-0.9998831153,45.45680618,-15.38653564,22.89135742,0,1440551.099,automotive,0,2018-02-25 16:49:08.760 -0500,null,0,0,0,0,null,1440551.526,0,-0.5443268,99.77307,10.41.2.84,100.110.18.251,1,1,0.7,-16.52837,-23.73571,0
2018-02-25 16:49:11.527 -0500,7,3DCCE5A0-AD64-4006-9610-DD3C35995850,my_iOS_device,1519595351,38.03569692,-78.49814737,152.9786,-1,-1,10,65,-9999,1519595352,45.41068268,-15.07021332,22.81054688,283.0292664,292.8049316,180,1440553.865,-0.01026916504,-0.01243591309,-1.012313843,1440553.837,-0.00637560765,0.005434180204,-0.002118012015,1440553.86,0.1467273308,-0.009782892953,0.01171615343,0.001965588424,0.002832130529,-0.0009336937219,0.00192378927,0.003567691892,-0.009103894234,XArbitraryCorrectedZVertical,0.006200741511,-0.004448809195,0.0732671693,0.9972830415,-0.009782065637,-0.01171588525,-0.9998835325,45.72764587,-15.14920807,22.71484375,0,1440551.099,automotive,0,2018-02-25 16:49:08.760 -0500,null,0,0,0,0,null,1440551.526,0,-0.5443268,99.77307,10.41.2.84,100.110.18.251,1,1,0.7,-16.52837,-25.26732,0
2018-02-25 16:49:11.587 -0500,8,3DCCE5A0-AD64-4006-9610-DD3C35995850,my_iOS_device,1519595351,38.03569692,-78.49814737,152.9786,-1,-1,10,65,-9999,1519595352,45.51239014,-15.23392487,22.83459473,283.0339966,292.8096619,180,1440553.924,-0.01248168945,-0.01226806641,-0.9981842041,1440553.897,0.001058872849,-0.001084705512,0.00106499812,1440553.894,0.1466746093,-0.009714896076,0.01181093914,0.003023799974,0.0006652581505,-0.0009331295732,0.001398026012,0.001892451197,-0.002787232399,XArbitraryCorrectedZVertical,0.006245397963,-0.004411592614,0.07324083894,0.9972848892,-0.009714066051,-0.01181066409,-0.9998830557,45.51239014,-15.23392487,22.83459473,0,1440551.099,automotive,0,2018-02-25 16:49:08.760 -0500,null,0,0,0,0,null,1440551.526,0,-0.5443268,99.77307,10.41.2.84,100.110.18.251,1,1,0.7,-16.52837,-23.43917,0
2018-02-25 16:49:11.649 -0500,9,3DCCE5A0-AD64-4006-9610-DD3C35995850,my_iOS_device,1519595351,38.03569692,-78.49814737,152.9786,-1,-1,10,65,-9999,1519595352,45.43974304,-15.57929993,22.71081543,283.03479,292.8104553,180,1440553.984,-0.005249023438,-0.009490966797,-1.007568359,1440553.957,-0.01175838884,-0.005345763256,-0.00527226001,1440553.964,0.146621248,-0.009727509228,0.01178960576,-0.003392745741,-0.001462260261,-0.001966123004,-0.002434574999,-0.003728856333,-0.01206445694,XArbitraryCorrectedZVertical,0.006235103589,-0.004418829922,0.07321424037,0.9972869754,-0.009726679884,-0.01178933308,-0.9998831749,45.44701385,-15.62624359,22.89508057,0,1440551.099,automotive,0,2018-02-25 16:49:08.760 -0500,null,0,0,0,0,null,1440551.526,0,-0.5443268,99.77307,10.41.2.84,100.110.18.251,1,1,0.7,-16.52837,-17.50165,0
2018-02-25 16:49:11.719 -0500,10,3DCCE5A0-AD64-4006-9610-DD3C35995850,my_iOS_device,1519595351,38.03569692,-78.49814737,152.9786,-1,-1,10,65,-9999,1519595352,45.51154709,-15.37854004,22.58306885,283.0418701,292.8175354,180,1440554.044,-0.009841918945,-0.01365661621,-1.002929688,1440554.016,-0.009635316824,-0.006434729826,-0.003144660615,1440554.034,0.1465410523,-0.009771194403,0.01174954024,0.00196448015,0.002832476515,-0.0009352467023,-0.000391989015,0.0005950946361,-0.01214069128,XArbitraryCorrectedZVertical,0.006216546521,-0.00444233045,0.0731742233,0.997289896,-0.009770364501,-0.01174926944,-0.9998832345,45.46287155,-15.43066406,22.68353271,0,1440551.099,automotive,0,2018-02-25 16:49:08.760 -0500,null,0,0,0,0,null,1440551.526,0,-0.5443268,99.77307,10.41.2.84,100.110.18.251,1,1,0.7,-16.52837,-20.22562,0
2018-02-25 16:49:11.767 -0500,11,3DCCE5A0-AD64-4006-9610-DD3C35995850,my_iOS_device,1519595351,38.03569692,-78.49814737,152.9786,-1,-1,10,65,-9999,1519595352,45.60437012,-15.58763885,22.69732666,283.0429993,292.8186646,180,1440554.103,-0.00373840332,-0.006820678711,-1.005493164,1440554.076,-0.005349757998,-0.003215234384,-0.002103630945,1440554.069,0.1465196842,-0.009809043237,0.01170987093,-0.001265156083,-0.001470535062,0.000157951843,0.000515610911,0.002874764614,-0.007288277149,XArbitraryCorrectedZVertical,0.006198102608,-0.004462722223,0.07316355407,0.9972907305,-0.00980821345,-0.01170960348,-0.9998833537,45.49768448,-15.45028687,22.70159912,0,1440551.099,automotive,0,2018-02-25 16:49:08.760 -0500,null,0,0,0,0,null,1440551.526,0,-0.5443268,99.77307,10.41.2.84,100.110.18.251,1,1,0.7,-16.52837,-21.93712,0
2018-02-25 16:49:11.826 -0500,12,3DCCE5A0-AD64-4006-9610-DD3C35995850,my_iOS_device,1519595351,38.03569692,-78.49814737,152.9786,-1,-1,10,65,-9999,1519595352,45.40598297,-15.2151413,22.67132568,283.0458679,292.8215332,180,1440554.163,-0.008728027344,-0.01586914063,-1.010147095,1440554.136,-0.007493070043,-0.00536600328,-0.00315664484,1440554.138,0.1464721935,-0.009761955371,0.01179770833,-0.002313733567,-0.0003995825537,-0.00409439439,-0.002079699188,0.001192577183,-0.002482354641,XArbitraryCorrectedZVertical,0.006240074988,-0.004436174873,0.07313979417,0.9972922206,-0.009761121124,-0.01179743465,-0.9998827577,45.40598297,-15.2151413,22.67132568,0,1440551.099,automotive,0,2018-02-25 16:49:08.760 -0500,null,0,0,0,0,null,1440552.547,0,-0.5258331,99.77287,10.41.2.84,100.110.18.251,1,1,0.7,-16.52837,-23.61815,0
2018-02-25 16:49:11.886 -0500,13,3DCCE5A0-AD64-4006-9610-DD3C35995850,my_iOS_device,1519595351,38.03569692,-78.49814737,152.9786,-1,-1,10,65,-9999,1519595352,45.46545792,-15.28972626,22.52001953,283.0496521,292.8253174,180,1440554.223,-0.008804321289,-0.00862121582,-1.004608154,1440554.195,-0.004298341999,-0.007544469052,-0.00316623222,1440554.208,0.1464103034,-0.009824930795,0.01169869291,-0.001269035973,-0.0004113730974,0.00127383729,-0.0009638639167,-0.0008290391415,-0.00849378109,XArbitraryCorrectedZVertical,0.006192866247,-0.004471392836,0.07310900092,0.9972946048,-0.009824100882,-0.01169842575,-0.9998832941,45.38057709,-15.42481232,22.79077148,0,1440551.099,automotive,0,2018-02-25 16:49:08.760 -0500,null,0,0,0,0,null,1440552.547,0,-0.5258331,99.77287,10.41.2.84,100.110.18.251,1,1,0.7,-16.52837,-25.13997,0
2018-02-25 16:49:11.958 -0500,14,3DCCE5A0-AD64-4006-9610-DD3C35995850,my_iOS_device,1519595351,38.03569692,-78.49814737,152.9786,-1,-1,10,65,-9999,1519595352,45.72493744,-15.45657349,22.67962646,283.0538025,292.8294678,180,1440554.282,-0.01010131836,-0.0128326416,-1.016738892,1440554.255,-0.008571117652,-0.006438990884,-0.00208205934,1440554.277,0.1463472819,-0.009869588714,0.01173424288,0.001952278428,0.0006383061409,-0.001887732185,0.004253514111,0.004440272227,-0.00873875618,XArbitraryCorrectedZVertical,0.006212084088,-0.004492556676,0.0730773434,0.9972966909,-0.009868749417,-0.0117339734,-0.9998824596,45.72493744,-15.45657349,22.67962646,0,1440551.099,automotive,0,2018-02-25 16:49:08.760 -0500,null,0,0,0,0,null,1440552.547,0,-0.5258331,99.77287,10.41.2.84,100.110.18.251,1,1,0.7,-16.52837,-28.21184,0
2018-02-25 16:49:12.005 -0500,15,3DCCE5A0-AD64-4006-9610-DD3C35995850,my_iOS_device,1519595351,38.03569692,-78.49814737,152.9786,-1,-1,10,65,-9999,1519595352,45.49752808,-15.54470825,22.77770996,283.0563049,292.8319702,180,1440554.342,-0.01359558105,-0.01261901855,-1.00100708,1440554.315,-0.003202184895,-0.001066063384,-0.002118012015,1440554.312,0.1463196662,-0.009793665951,0.01179907299,0.003031226341,0.003871076507,-0.001874485984,-0.0001406446099,0.002658784389,-0.004359483719,XArbitraryCorrectedZVertical,0.006241574883,-0.004452412948,0.07306362689,0.9972978234,-0.009792828001,-0.01179879904,-0.9998824596,45.72996902,-15.44734192,22.63043213,0,1440551.099,automotive,0,2018-02-25 16:49:08.760 -0500,null,0,0,0,0,null,1440552.547,0,-0.5258331,99.77287,10.41.2.84,100.110.18.251,1,1,0.7,-16.52837,-30.04996,0
2018-02-25 16:49:12.067 -0500,16,3DCCE5A0-AD64-4006-9610-DD3C35995850,my_iOS_device,1519595351,38.03569692,-78.49814737,152.9786,-1,-1,10,65,-9999,1519595352,45.4999733,-15.50943756,22.81616211,283.0610657,292.836731,180,1440554.402,-0.008071899414,-0.01306152344,-1.009429932,1440554.374,0.001074851816,-0.00217313945,-0.00426957986,1440554.382,0.1462161647,-0.00953301969,0.01248836632,0.01264134422,0.001649615355,-0.004022357054,0.0007125511765,-0.001748409122,-0.007981717587,XArbitraryCorrectedZVertical,0.006575543899,-0.004297581036,0.07301103324,0.9973002672,-0.009532132186,-0.012488042,-0.9998765588,45.4999733,-15.50943756,22.81616211,0,1440551.099,automotive,0,2018-02-25 16:49:08.760 -0500,null,0,0,0,0,null,1440552.547,0,-0.5258331,99.77287,10.41.2.84,100.110.18.251,1,1,0.7,-16.52837,-32.89256,0
2018-02-25 16:49:12.125 -0500,17,3DCCE5A0-AD64-4006-9610-DD3C35995850,my_iOS_device,1519595351,38.03569692,-78.49814737,152.9786,-1,-1,10,65,-9999,1519595352,45.53391266,-15.26887512,22.60308838,283.0705872,292.8462524,180,1440554.462,-0.01100158691,-0.0154876709,-1.006851196,1440554.434,0.02143951204,0.01068087387,-0.004389422109,1440554.452,0.1459779431,-0.008808206591,0.01384472796,0.02654011361,0.00265255291,-0.005132157821,0.002963132225,0.005207811482,-0.01249426603,XArbitraryCorrectedZVertical,0.007224968169,-0.00388745917,0.07289132476,0.9973061085,-0.008807248436,-0.01384428609,-0.9998653531,45.53391266,-15.26887512,22.60308838,0,1440551.099,automotive,0,2018-02-25 16:49:08.760 -0500,null,0,0,0,0,null,1440552.547,0,-0.5258331,99.77287,10.41.2.84,100.110.18.251,1,1,0.7,-16.52837,-35.19827,0
2018-02-25 16:49:12.201 -0500,18,3DCCE5A0-AD64-4006-9610-DD3C35995850,my_iOS_device,1519595351,38.03569692,-78.49814737,152.9786,-1,-1,10,65,-9999,1519595352,45.47578049,-15.32920837,22.71380615,283.0911255,292.8667908,180,1440554.521,-0.00993347168,-0.008941650391,-1.004135132,1440554.494,0.01711453843,-0.002265817455,-0.007543670104,1440554.486,0.1458751034,-0.008841533433,0.01436441564,0.02120620385,0.00376108638,-0.006172684021,0.00485796202,0.002492584288,-0.004353702068,XArbitraryCorrectedZVertical,0.007485125214,-0.003885506187,0.0728386417,0.9973080754,-0.008840505965,-0.01436392125,-0.9998577237,45.53412247,-15.17512512,22.52203369,0,1440551.099,automotive,0,2018-02-25 16:49:08.760 -0500,null,0,0,0,0,null,1440552.547,0,-0.5258331,99.77287,10.41.2.84,100.110.18.251,1,1,0.7,-16.52837,-37.70198,0
2018-02-25 16:49:12.244 -0500,19,3DCCE5A0-AD64-4006-9610-DD3C35995850,my_iOS_device,1519595351,38.03569692,-78.49814737,152.9786,-1,-1,10,65,-9999,1519595352,45.47578049,-15.32920837,22.71380615,283.0911255,292.8667908,180,1440554.581,-0.01252746582,-0.02008056641,-1.009094238,1440554.554,-0.01713158266,-0.01071709286,-0.00416891237,1440554.556,0.1456720497,-0.008954785988,0.01465470151,-0.009849648923,-0.006866991054,-0.001740402076,0.00144638028,0.002355593257,-0.002710938454,XArbitraryCorrectedZVertical,0.007633602247,-0.00393217383,0.07273624092,0.9973142147,-0.008953704499,-0.01465417724,-0.9998525381,45.30767059,-15.34113312,22.671875,0,1440551.099,automotive,0,2018-02-25 16:49:08.760 -0500,null,0,0,0,0,null,1440552.547,0,-0.5258331,99.77287,10.41.2.84,100.110.18.251,1,1,0.7,-17.64293,-38.99322,0
2018-02-25 16:49:12.303 -0500,20,3DCCE5A0-AD64-4006-9610-DD3C35995850,my_iOS_device,1519595351,38.03569692,-78.49814737,152.9786,-1,-1,10,65,-9999,1519595352,45.53293228,-15.40353394,22.70135498,283.0974121,292.8730774,180,1440554.641,-0.01031494141,-0.008987426758,-1.00592041,1440554.613,0.005371063286,0.003207244901,-0.003233343879,1440554.626,0.1455842153,-0.008981547867,0.01472316292,0.01481721736,0.01353002526,0.0002380243968,-0.002723038197,-0.0002462416887,-0.01559060812,XArbitraryCorrectedZVertical,0.007668541279,-0.00394336367,0.07269217074,0.9973170757,-0.008980453946,-0.01472263131,-0.9998512864,45.43879318,-15.3837204,22.59124756,0,1440551.099,automotive,0,2018-02-25 16:49:08.760 -0500,null,0,0,0,0,null,1440552.547,0,-0.5258331,99.77287,10.41.2.84,100.110.18.251,1,1,0.7,-18.75749,-39.64451,0
2018-02-25 16:49:12.363 -0500,21,3DCCE5A0-AD64-4006-9610-DD3C35995850,my_iOS_device,1519595351,38.03569692,-78.49814737,152.9786,-1,-1,10,65,-9999,1519595352,45.56458282,-15.49445343,22.76727295,283.0983582,292.8740234,180,1440554.7,-0.008041381836,-0.01527404785,-1.014068604,1440554.673,-0.002160356276,-0.00647414461,-0.00211082148,1440554.695,0.1455418018,-0.008282867258,0.01591012948,-0.004489606712,-0.002573139966,-0.0007055702154,-0.002353651449,0.003504063934,-0.009621322155,XArbitraryCorrectedZVertical,0.008234960027,-0.003551955335,0.07267092168,0.9973154664,-0.008281724527,-0.01590945758,-0.9998391271,45.30722046,-15.51356506,22.75726318,0,1440551.099,automotive,0,2018-02-25 16:49:08.760 -0500,null,0,0,0,0,null,1440552.547,0,-0.5258331,99.77287,10.41.2.84,100.110.18.251,1,1,0.7,-20.42932,-39.55951,0
2018-02-25 16:49:12.434 -0500,22,3DCCE5A0-AD64-4006-9610-DD3C35995850,my_iOS_device,1519595351,38.03569692,-78.49814737,152.9786,-1,-1,10,65,-9999,1519595352,45.48268509,-15.3891449,22.68865967,283.099884,292.8755493,180,1440554.76,-0.01322937012,-0.01934814453,-0.9983520508,1440554.733,-0.01178715098,-0.008582302929,-0.00206288458,1440554.73,0.1455374035,-0.008508221977,0.01565084566,-0.007721646689,-0.006875381339,0.0003842320293,0.001335446723,0.003611022606,-0.002554297447,XArbitraryCorrectedZVertical,0.008113847114,-0.003673777916,0.07266842574,0.9973161817,-0.008507077582,-0.01565020718,-0.9998413324,45.46745682,-15.55338287,22.63061523,0,1440551.099,automotive,0,2018-02-25 16:49:08.760 -0500,null,0,0,0,0,null,1440552.547,0,-0.5258331,99.77287,10.41.2.84,100.110.18.251,1,1,0.7,-22.10116,-41.05552,0
2018-02-25 16:49:12.483 -0500,23,3DCCE5A0-AD64-4006-9610-DD3C35995850,my_iOS_device,1519595351,38.03569692,-78.49814737,152.9786,-1,-1,10,65,-9999,1519595352,45.3059845,-15.06777954,22.93518066,283.1053162,292.8809814,180,1440554.82,-0.004837036133,-0.01159667969,-1.000778198,1440554.792,0.01179460784,0.003167297484,-0.006464290914,1440554.8,0.1453971564,-0.008572593472,0.0158770106,0.01801593602,0.01026765537,-0.001902820077,-0.001056888141,0.00112109445,-0.01281231642,XArbitraryCorrectedZVertical,0.008228706196,-0.003698229557,0.07259768993,0.9973201752,-0.008571407758,-0.01587634347,-0.9998372197,45.48604584,-15.37806702,22.909729,0,1440551.099,automotive,0,2018-02-25 16:49:08.760 -0500,null,0,0,0,0,null,1440552.547,0,-0.5258331,99.77287,10.41.2.84,100.110.18.251,1,1,0.7,-23.21572,-42.07229,0
2018-02-25 16:49:12.542 -0500,24,3DCCE5A0-AD64-4006-9610-DD3C35995850,my_iOS_device,1519595351,38.03569692,-78.49814737,152.9786,-1,-1,10,65,-9999,1519595352,45.51461029,-15.45536041,23.01824951,283.108429,292.8840942,180,1440554.879,-0.009063720703,-0.01715087891,-1.011138916,1440554.852,0.01921737043,-0.006594519491,-0.004341485209,1440554.869,0.1453352057,-0.008185186049,0.01741831251,0.002986861393,-0.003695633262,-0.001806538086,0.001897231676,0.002784252167,-0.00248926878,XArbitraryCorrectedZVertical,0.008983115666,-0.003449322889,0.07256476581,0.9973171353,-0.008183852769,-0.01741743088,-0.9998148084,44.96071625,-15.48338318,22.94354248,0,1440551.099,automotive,0,2018-02-25 16:49:08.760 -0500,null,0,0,0,0,null,1440552.547,0,-0.5258331,99.77287,10.41.2.84,100.110.18.251,1,1,0.7,-24.88756,-34.15632,0
2018-02-25 16:49:12.602 -0500,25,3DCCE5A0-AD64-4006-9610-DD3C35995850,my_iOS_device,1519595351,38.03569692,-78.49814737,152.9786,-1,-1,10,65,-9999,1519595353,45.41939163,-15.35214233,22.9487915,283.113739,292.8894043,180,1440554.939,-0.007736206055,-0.01536560059,-1.004501343,1440554.912,-0.02248027539,-0.01285028489,-0.005207545196,1440554.904,0.1453254105,-0.00840373812,0.01717817695,-0.0184125416,-0.008979311213,-0.0006302900147,0.002558283508,0.005489099771,-0.002822637558,XArbitraryCorrectedZVertical,0.008871283382,-0.0035670707,0.07255948335,0.9973180294,-0.008402399719,-0.01717733219,-0.9998171329,45.49224091,-15.26422882,22.93780518,0,1440551.099,automotive,0,2018-02-25 16:49:08.760 -0500,null,0,0,0,0,null,1440552.547,0,-0.5258331,99.77287,10.41.2.84,100.110.18.251,1,1,0.7,-26.00211,-35.38092,0
2018-02-25 16:49:12.672 -0500,26,3DCCE5A0-AD64-4006-9610-DD3C35995850,my_iOS_device,1519595351,38.03569692,-78.49814737,152.9786,-1,-1,10,65,-9999,1519595353,45.12850952,-15.42430115,22.72784424,283.1167603,292.8924255,180,1440554.999,-0.005264282227,-0.01982116699,-1.012634277,1440554.971,-0.00320111963,1.60E-05,-0.001053013895,1440554.974,0.1452412085,-0.008707778822,0.0167015326,0.005162603222,0.006020046305,0.0002962392755,-0.004568692297,0.001335155219,-0.002252578735,XArbitraryCorrectedZVertical,0.008644473739,-0.003736356972,0.07251732051,0.9973225594,-0.008706454188,-0.0167007558,-0.9998226166,45.31071091,-15.32841492,22.99584961,0,1440551.099,automotive,0,2018-02-25 16:49:08.760 -0500,null,0,0,0,0,null,1440552.547,0,-0.5258331,99.77287,10.41.2.84,100.110.18.251,1,1,0.7,-27.67395,-37.1224,0
2018-02-25 16:49:12.721 -0500,27,3DCCE5A0-AD64-4006-9610-DD3C35995850,my_iOS_device,1519595351,38.03569692,-78.49814737,152.9786,-1,-1,10,65,-9999,1519595353,45.48960495,-15.25995636,22.9017334,283.1139221,292.8895874,180,1440555.058,-0.005569458008,-0.01605224609,-0.9992218018,1440555.031,0.005382781195,0.00645017616,-0.00217313945,1440555.043,0.1452814331,-0.008133262322,0.01729477787,0.02229723334,0.01348874904,0.0002056043595,-0.001587892883,-0.000162139535,-0.01499891281,XArbitraryCorrectedZVertical,0.008919537067,-0.00342815672,0.07253846526,0.9973198175,-0.008131956682,-0.01729391515,-0.9998173714,45.51280212,-15.324646,22.95318604,0,1440551.099,automotive,0,2018-02-25 16:49:08.760 -0500,null,0,0,0,0,null,1440552.547,0,-0.5258331,99.77287,10.41.2.84,100.110.18.251,1,1,0.7,-28.78851,-38.73581,0
2018-02-25 16:49:12.783 -0500,28,3DCCE5A0-AD64-4006-9610-DD3C35995850,my_iOS_device,1519595351,38.03569692,-78.49814737,152.9786,-1,-1,10,65,-9999,1519595353,44.85944748,-15.68508148,22.97686768,283.1122742,292.8879395,180,1440555.118,-0.002258300781,-0.0164642334,-1.010040283,1440555.091,-0.01498294429,-0.007485879508,-0.00311829532,1440555.113,0.1452842078,-0.008325519807,0.01730702272,-0.008766221814,-0.002548772376,-0.0006846527103,0.005898029543,0.005648443475,-0.003098845482,XArbitraryCorrectedZVertical,0.008932620287,-0.003523570718,0.072538957,0.9973194003,-0.008324177004,-0.01730615832,-0.9998155832,45.05654526,-15.18771362,23.01239014,0,1440551.099,automotive,0,2018-02-25 16:49:08.760 -0500,null,0,0,0,0,null,1440552.547,0,-0.5258331,99.77287,10.41.2.84,100.110.18.251,1,1,0.7,-30.46034,-40.3516,0
2018-02-25 16:49:12.841 -0500,29,3DCCE5A0-AD64-4006-9610-DD3C35995850,my_iOS_device,1519595351,38.03569692,-78.49814737,152.9786,-1,-1,10,65,-9999,1519595353,44.9933548,-15.08960724,23.17938232,283.1144104,292.8900757,180,1440555.178,-0.01184082031,-0.01954650879,-1.005706787,1440555.15,-0.0170974942,-0.002070341431,-0.0020532972,1440555.148,0.1452637821,-0.008326643579,0.0172001466,-0.004444247112,0.007151724771,-0.0007151623722,-0.003713868558,0.0005672182888,-0.002852857113,XArbitraryCorrectedZVertical,0.008879330941,-0.003528102068,0.07252902538,0.9973205328,-0.008325316012,-0.01719929837,-0.999817431,45.00871277,-15.26966095,23.20385742,0,1440551.099,automotive,0,2018-02-25 16:49:08.760 -0500,null,0,0,0,0,null,1440552.702,0,-0.5258331,99.77287,10.41.2.84,100.110.18.251,1,1,0.7,-31.5749,-34.76069,0
2018-02-25 16:49:12.903 -0500,30,3DCCE5A0-AD64-4006-9610-DD3C35995850,my_iOS_device,1519595351,38.03569692,-78.49814737,152.9786,-1,-1,10,65,-9999,1519595353,44.98701859,-15.11902618,22.92425537,283.1118774,292.8875427,180,1440555.237,-0.005966186523,-0.01084899902,-1.006164551,1440555.21,-0.009617207328,-0.001029311761,-0.00102185491,1440555.218,0.1453032015,-0.008189202276,0.01699111942,-0.003412399907,0.0006649321876,0.0003733024932,-0.001867612824,-0.003441216424,-0.013651371,XArbitraryCorrectedZVertical,0.008770182729,-0.003466980532,0.07254979014,0.9973201156,-0.008187928237,-0.01699030213,-0.9998221397,44.98701859,-15.11902618,22.92425537,0,1440551.099,automotive,0,2018-02-25 16:49:08.760 -0500,null,0,0,0,0,null,1440552.702,0,-0.5258331,99.77287,10.41.2.84,100.110.18.251,1,1,0.7,-33.24674,-36.88245,0
2018-02-25 16:49:12.960 -0500,31,3DCCE5A0-AD64-4006-9610-DD3C35995850,my_iOS_device,1519595351,38.03569692,-78.49814737,152.9786,-1,-1,10,65,-9999,1519595353,45.4991951,-15.39308929,22.83966064,283.1129456,292.8886108,180,1440555.297,-0.007919311523,-0.01885986328,-1.014968872,1440555.27,-8.52E-06,-0.004326571507,-0.003192597515,1440555.287,0.1452973098,-0.00799335208,0.01722062864,0.008371259086,0.006001210772,-0.0007479074411,0.003490738571,0.005195852369,-0.003552377224,XArbitraryCorrectedZVertical,0.00887751393,-0.003361010458,0.07254717499,0.9973198175,-0.007992081344,-0.01721977815,-0.9998198152,45.4991951,-15.39308929,22.83966064,0,1440551.099,automotive,0,2018-02-25 16:49:08.760 -0500,null,0,0,0,0,null,1440552.702,0,-0.5258331,99.77287,10.41.2.84,100.110.18.251,1,1,0.7,-34.91858,-39.14462,0
2018-02-25 16:49:13.020 -0500,32,3DCCE5A0-AD64-4006-9610-DD3C35995850,my_iOS_device,1519595351,38.03569692,-78.49814737,152.9786,-1,-1,10,65,-9999,1519595353,45.24049377,-15.3764267,22.56170654,283.1021118,292.8777771,180,1440555.357,-0.01286315918,-0.01406860352,-1.006362915,1440555.33,-0.009628925237,5.75E-05,0.003245328104,1440555.322,0.1454271882,-0.007611951162,0.01753619364,-0.002329824492,0.008230827749,0.005699150264,-0.004169077612,0.003344621509,0.0002444982529,XArbitraryCorrectedZVertical,0.00902124308,-0.003158777952,0.07261293381,0.9973143935,-0.007610707078,-0.01753529534,-0.9998172522,45.24049377,-15.3764267,22.56170654,0,1440551.099,automotive,0,2018-02-25 16:49:08.760 -0500,null,0,0,0,0,null,1440552.702,0,-0.5258331,99.77287,10.41.2.84,100.110.18.251,1,1,0.7,-34.06807,-34.43207,0
2018-02-25 16:49:13.084 -0500,33,3DCCE5A0-AD64-4006-9610-DD3C35995850,my_iOS_device,1519595351,38.03569692,-78.49814737,152.9786,-1,-1,10,65,-9999,1519595353,45.1150856,-15.67723083,22.80773926,283.0989685,292.8746338,180,1440555.417,-0.008193969727,-0.01957702637,-1.013671875,1440555.389,-0.02790247137,-0.02902765693,-0.005147624071,1440555.392,0.1455213514,-0.008028810931,0.01701202996,-0.02169632167,-0.02516905405,-0.00161045487,0.0004744622856,-0.001680806279,-0.0008177757263,XArbitraryCorrectedZVertical,0.008775160648,-0.003385283286,0.07265922427,0.9973124266,-0.008027562872,-0.01701121032,-0.9998230934,45.1150856,-15.67723083,22.80773926,0,1440551.099,automotive,0,2018-02-25 16:49:08.760 -0500,null,0,0,0,0,null,1440552.702,0,-0.5258331,99.77287,10.41.2.84,100.110.18.251,1,1,0.7,-34.06807,-36.37376,0
2018-02-25 16:49:13.139 -0500,34,3DCCE5A0-AD64-4006-9610-DD3C35995850,my_iOS_device,1519595351,38.03569692,-78.49814737,152.9786,-1,-1,10,65,-9999,1519595353,45.31931305,-15.54829407,22.59942627,283.1101379,292.8858032,180,1440555.476,-0.01301574707,-0.01689147949,-1.001922607,1440555.449,0.006471481449,0.009684052672,-0.003252518639,1440555.461,0.1453720642,-0.00811854388,0.01699962128,0.01802544296,0.01567615755,0.001321998541,0.004623019136,0.000641381368,-0.01595503092,XArbitraryCorrectedZVertical,0.008771976456,-0.00343113509,0.07258441299,0.997317791,-0.008117281832,-0.01699880324,-0.999822557,45.37334824,-15.41570282,22.72125244,0,1440551.099,automotive,0,2018-02-25 16:49:08.760 -0500,null,0,0,0,0,null,1440552.702,0,-0.5258331,99.77287,10.41.2.84,100.110.18.251,1,1,0.7,-31.89074,-32.43293,0
2018-02-25 16:49:13.200 -0500,35,3DCCE5A0-AD64-4006-9610-DD3C35995850,my_iOS_device,1519595351,38.03569692,-78.49814737,152.9786,-1,-1,10,65,-9999,1519595353,45.31796265,-15.71900177,22.69989014,283.0816956,292.8573608,180,1440555.536,-0.004913330078,-0.01147460938,-1.012084961,1440555.509,0.01175625832,0.007511445855,0.008469651215,1440555.531,0.1458455319,-0.006976057279,0.01830920278,0.01585328393,0.009206460789,0.002414789982,-0.001936301589,0.006085889414,-0.002785921097,XArbitraryCorrectedZVertical,0.00938420929,-0.002811631886,0.07282281667,0.9972966909,-0.006974831689,-0.01830817945,-0.999808073,45.31796265,-15.71900177,22.69989014,0,1440551.099,automotive,0,2018-02-25 16:49:08.760 -0500,null,0,0,0,0,null,1440552.702,0,-0.5258331,99.77287,10.41.2.84,100.110.18.251,1,1,0.7,-31.89074,-34.50058,0
2018-02-25 16:49:13.259 -0500,36,3DCCE5A0-AD64-4006-9610-DD3C35995850,my_iOS_device,1519595351,38.03569692,-78.49814737,152.9786,-1,-1,10,65,-9999,1519595353,45.22454071,-15.72592163,22.87493896,283.0687866,292.8444519,180,1440555.596,0.004806518555,-0.03396606445,-1.00340271,1440555.568,-0.01390276615,8.10E-05,0.003264502864,1440555.566,0.1459385927,-0.006758208422,0.01861188096,0.001930769533,0.006047515199,0.00675459113,0.0006839884445,-0.001332432032,0.00116199255,XArbitraryCorrectedZVertical,0.009527331218,-0.002691528061,0.07286962867,0.9972922802,-0.006756986491,-0.01861080714,-0.9998039603,45.22439194,-15.75473785,22.9230957,0,1440551.099,automotive,0,2018-02-25 16:49:08.760 -0500,null,0,0,0,0,null,1440552.702,0,-0.5258331,99.77287,10.41.2.84,100.110.18.251,1,1,0.7,-29.78054,-29.78054,0
2018-02-25 16:49:13.320 -0500,37,3DCCE5A0-AD64-4006-9610-DD3C35995850,my_iOS_device,1519595351,38.03569692,-78.49814737,152.9786,-1,-1,10,65,-9999,1519595353,45.58362961,-16.04496765,23.03155518,282.4255371,292.2012024,180,1440555.655,-0.1360168457,0.056640625,-1.005203247,1440555.628,-0.02320358995,-0.01434911195,0.4409635501,1440555.635,0.1594188384,-0.006929664946,0.0177053888,-0.01372050121,-0.01053494029,0.4263393283,0.04823406413,-0.01884033531,-0.01499700546,XArbitraryCorrectedZVertical,0.009100293741,-0.002748806262,0.07959086448,0.9967823029,-0.006928523537,-0.0177044645,-0.9998192787,45.68929672,-16.04504395,23.3182373,0,1440551.099,automotive,0,2018-02-25 16:49:08.760 -0500,null,0,0,0,0,null,1440552.702,0,-0.5258331,99.77287,10.41.2.84,100.110.18.251,1,1,0.7,-28.42747,-31.99526,0
2018-02-25 16:49:13.379 -0500,38,3DCCE5A0-AD64-4006-9610-DD3C35995850,my_iOS_device,1519595351,38.03569692,-78.49814737,152.9786,-1,-1,10,65,-9999,1519595353,45.75539017,-16.57308197,23.34777832,282.0828552,291.8585205,180,1440555.715,-0.004241943359,-0.01835632324,-1.016311646,1440555.688,-0.006387325558,0.002191248945,-0.003178216445,1440555.705,0.1632691326,-0.006783028682,0.01796015165,0.01266492531,0.01246492937,0.001349864411,-0.0009695822373,0.006469316781,-0.005509614944,XArbitraryCorrectedZVertical,0.009226543829,-0.002647820394,0.08150981367,0.9966263175,-0.006781882606,-0.01795918681,-0.9998157024,45.74474335,-16.49384308,23.53009033,0,1440551.099,automotive,0,2018-02-25 16:49:08.760 -0500,null,0,0,0,0,null,1440552.702,0,-0.5258331,99.77287,10.41.2.84,100.110.18.251,1,1,0.7,-23.43904,-26.22074,0
2018-02-25 16:49:13.438 -0500,39,3DCCE5A0-AD64-4006-9610-DD3C35995850,my_iOS_device,1519595351,38.03569692,-78.49814737,152.9786,-1,-1,10,65,-9999,1519595353,45.82300186,-16.43881989,23.49694824,282.0801697,291.855835,180,1440555.775,-0.00617980957,-0.0189666748,-0.9966583252,1440555.747,0.00215396469,0.004311657805,0.001048220205,1440555.74,0.1633556832,-0.006597137317,0.01824114489,0.016920764,0.009200947359,0.002408568282,-0.001155472826,0.005376974121,-0.006139039993,XArbitraryCorrectedZVertical,0.009359099902,-0.002543322975,0.08155323565,0.9966217875,-0.006595992018,-0.0182401333,-0.9998118877,45.46607971,-16.33719635,23.51715088,0,1440551.099,automotive,0,2018-02-25 16:49:08.760 -0500,null,0,0,0,0,null,1440552.702,0,-0.5258331,99.77287,10.41.2.84,100.110.18.251,1,1,0.7,-23.43904,-28.10205,0
2018-02-25 16:49:13.497 -0500,40,3DCCE5A0-AD64-4006-9610-DD3C35995850,my_iOS_device,1519595351,38.03569692,-78.49814737,152.9786,-1,-1,10,65,-9999,1519595353,45.78158569,-16.34625244,23.60552979,281.7572021,291.5328674,180,1440555.834,-0.05041503906,0.01049804688,-1.002410889,1440555.807,-0.01783678772,-0.008287757312,0.175148648,1440555.81,0.1651484015,-0.006163617853,0.0182443618,-0.009373635985,-0.003403469454,0.1498537362,0.02840986848,-0.02290960401,-0.008821904659,XArbitraryCorrectedZVertical,0.009345107712,-0.002318788553,0.08244855702,0.9965487719,-0.006162553094,-0.01824335009,-0.99981457,45.82492828,-16.45400238,23.92150879,0,1440551.099,automotive,0,2018-02-25 16:49:08.760 -0500,null,0,0,0,0,null,1440552.702,0,-0.5258331,99.77287,10.41.2.84,100.110.18.251,1,1,0.7,-23.43904,-30.82509,0
2018-02-25 16:49:13.558 -0500,41,3DCCE5A0-AD64-4006-9610-DD3C35995850,my_iOS_device,1519595351,38.03569692,-78.49814737,152.9786,-1,-1,10,65,-9999,1519595354,45.75616837,-16.65590668,23.69610596,281.7734985,291.5491638,180,1440555.894,-0.01808166504,-0.00617980957,-1.001480103,1440555.867,-0.0279525388,-0.05390504362,-0.02323821104,1440555.879,0.1686795715,-0.008144271231,0.01694641169,-0.0195691064,-0.04899090156,-0.02932444587,0.0003762878478,0.004051923752,-0.01017123461,XArbitraryCorrectedZVertical,0.008785938844,-0.003343737219,0.08420172334,0.996404469,-0.008143011481,-0.01694560051,-0.9998232722,45.75616837,-16.65590668,23.69610596,0,1440551.099,automotive,0,2018-02-25 16:49:08.760 -0500,null,0,0,0,0,null,1440552.702,0,-0.5258331,99.77287,10.41.2.84,100.110.18.251,1,1,0.7,-23.43904,-26.69561,0
2018-02-25 16:49:13.617 -0500,42,3DCCE5A0-AD64-4006-9610-DD3C35995850,my_iOS_device,1519595351,38.03569692,-78.49814737,152.9786,-1,-1,10,65,-9999,1519595354,45.91342163,-16.32847595,23.33984375,282.4488831,292.2245483,180,1440555.954,0.07865905762,-0.1525726318,-1.006958008,1440555.926,-0.05223524162,-0.05466937086,-0.6315334988,1440555.949,0.1499957623,-0.01045086424,0.0154668014,-0.00145253865,-0.04041324928,-0.007010392845,0.005215659738,-0.2282471955,-0.002096831799,XArbitraryCorrectedZVertical,0.008102995344,-0.004631132353,0.07488403469,0.9971485734,-0.01044942439,-0.01546618436,-0.9998257756,45.29379272,-15.86147308,23.12927246,0,1440551.099,automotive,0,2018-02-25 16:49:08.760 -0500,null,0,0,0,0,null,1440552.702,0,-0.5258331,99.77287,10.41.2.84,100.110.18.251,1,1,0.7,-6.761909,-6.761909,0
2018-02-25 16:49:13.676 -0500,43,3DCCE5A0-AD64-4006-9610-DD3C35995850,my_iOS_device,1519595351,38.03569692,-78.49814737,152.9786,-1,-1,10,65,-9999,1519595354,45.79722977,-15.86469269,23.2489624,282.8379822,292.6136475,180,1440556.013,-0.01405334473,-0.01829528809,-1.006225586,1440555.986,-0.0355127205,-0.04517413631,0.007730624012,1440555.984,0.1501449173,-0.0112846596,0.01484726904,-0.03036875278,-0.0413120687,0.009134508669,0.002295749262,-0.005920488387,-0.00748282671,XArbitraryCorrectedZVertical,0.007825710811,-0.005069479346,0.07495693117,0.997143209,-0.01128317602,-0.01484672353,-0.9998261333,45.79722977,-15.86469269,23.2489624,0,1440551.099,automotive,0,2018-02-25 16:49:08.760 -0500,null,0,0,0,0,null,1440552.702,0,-0.5258331,99.77287,10.41.2.84,100.110.18.251,1,1,0.7,-4.618352,-8.628016,0
2018-02-25 16:49:13.736 -0500,44,3DCCE5A0-AD64-4006-9610-DD3C35995850,my_iOS_device,1519595351,38.03569692,-78.49814737,152.9786,-1,-1,10,65,-9999,1519595354,45.56410599,-15.85211182,23.02087402,282.8222656,292.5979309,180,1440556.073,-0.01165771484,-0.009094238281,-1.003311157,1440556.046,-0.01716993218,-0.01503247909,0.0001102548691,1440556.053,0.1504564906,-0.01219962772,0.01390579517,-0.01416947227,-0.00790890865,0.006851647515,0.0007387949154,-0.00130766537,-0.01198136806,XArbitraryCorrectedZVertical,0.007391479798,-0.005559829995,0.07511180639,0.9971321821,-0.0121981455,-0.01390534732,-0.9998289347,45.63079834,-15.73112488,22.98339844,0,1440551.099,automotive,0,2018-02-25 16:49:08.760 -0500,null,0,0,0,0,null,1440553.647,0,-0.6341553,99.77414,10.41.2.84,100.110.18.251,1,1,0.7,-4.618352,-11.91897,0
2018-02-25 16:49:13.799 -0500,45,3DCCE5A0-AD64-4006-9610-DD3C35995850,my_iOS_device,1519595351,38.03569692,-78.49814737,152.9786,-1,-1,10,65,-9999,1519595354,45.66488266,-15.85142517,22.94769287,282.8056641,292.5813293,180,1440556.133,-0.002944946289,-0.01493835449,-1.016403198,1440556.106,-0.01283004487,-0.004256264054,-0.003135073235,1440556.123,0.1506695083,-0.01218980599,0.01346167802,-0.002338062972,0.002821680391,0.0003698607907,-0.004626785405,0.0009643230587,-0.00207221508,XArbitraryCorrectedZVertical,0.007170283236,-0.005570867099,0.07521950454,0.9971256852,-0.01218839921,-0.0134612713,-0.9998351336,45.66488266,-15.85142517,22.94769287,0,1440551.099,automotive,0,2018-02-25 16:49:08.760 -0500,null,0,0,0,0,null,1440553.647,0,-0.6341553,99.77414,10.41.2.84,100.110.18.251,1,1,0.7,-4.618352,-15.12132,0
2018-02-25 16:49:13.856 -0500,46,3DCCE5A0-AD64-4006-9610-DD3C35995850,my_iOS_device,1519595351,38.03569692,-78.49814737,152.9786,-1,-1,10,65,-9999,1519595354,45.74136353,-15.83335114,23.20678711,282.8049011,292.5805664,180,1440556.193,-0.01493835449,-0.01446533203,-1.001846313,1440556.165,0.002184857358,0.005382514879,-0.005358546429,1440556.158,0.1506816302,-0.01214407881,0.01339727234,-0.0002047261223,0.001728874631,0.0003652521409,-0.007037607953,0.002929341979,-0.006099164486,XArbitraryCorrectedZVertical,0.007136487402,-0.005550451111,0.07522592694,0.9971255064,-0.01214269083,-0.01339687128,-0.9998365045,45.75514221,-15.49951172,23.23828125,0,1440551.099,automotive,0,2018-02-25 16:49:08.760 -0500,null,0,0,0,0,null,1440553.647,0,-0.6341553,99.77414,10.41.2.84,100.110.18.251,1,1,0.7,-4.618352,-17.28226,0
2018-02-25 16:49:13.915 -0500,47,3DCCE5A0-AD64-4006-9610-DD3C35995850,my_iOS_device,1519595351,38.03569692,-78.49814737,152.9786,-1,-1,10,65,-9999,1519595354,45.66135406,-15.6436615,23.05255127,282.8087769,292.5844421,180,1440556.252,-0.007049560547,-0.01223754883,-1.012145996,1440556.225,0.01396774729,0.0139664157,-0.002228266884,1440556.227,0.150611412,-0.01081229147,0.01455252776,0.0191241093,0.0189062655,-0.00296371989,-5.33E-05,-0.002019030973,-0.006649315357,XArbitraryCorrectedZVertical,0.00766218733,-0.004843241069,0.07519222796,0.9971279502,-0.01081093587,-0.01455201395,-0.99983567,45.66135406,-15.6436615,23.05255127,0,1440551.099,automotive,0,2018-02-25 16:49:08.760 -0500,null,0,0,0,0,null,1440553.647,0,-0.6341553,99.77414,10.41.2.84,100.110.18.251,1,1,0.7,-4.618352,-20.4015,0
2018-02-25 16:49:13.975 -0500,48,3DCCE5A0-AD64-4006-9610-DD3C35995850,my_iOS_device,1519595351,38.03569692,-78.49814737,152.9786,-1,-1,10,65,-9999,1519595354,45.81607819,-15.65057373,23.30731201,282.8023987,292.578064,180,1440556.312,-0.01332092285,-0.01875305176,-1.001022339,1440556.285,0.01283430593,0.004254666158,0.00206767827,1440556.297,0.1508001129,-0.009591509331,0.01656970964,0.01796432957,0.00487462664,0.00240805815,0.005332843401,0.002851299942,-0.01071184874,XArbitraryCorrectedZVertical,0.008622369729,-0.004157873802,0.07528556138,0.9971160889,-0.009590045549,-0.01656895131,-0.9998167157,45.84731293,-15.55304718,23.23864746,0,1440551.099,automotive,0,2018-02-25 16:49:08.760 -0500,null,0,0,0,0,null,1440553.647,0,-0.6341553,99.77414,10.41.2.84,100.110.18.251,1,1,0.7,-4.618352,-22.52066,0
2018-02-25 16:49:14.045 -0500,49,3DCCE5A0-AD64-4006-9610-DD3C35995850,my_iOS_device,1519595351,38.03569692,-78.49814737,152.9786,-1,-1,10,65,-9999,1519595354,45.87070465,-15.71004486,23.22973633,282.8025818,292.5782471,180,1440556.372,-0.006683349609,-0.01066589355,-1.003890991,1440556.344,-0.008579639768,-0.01076556239,-0.005274656855,1440556.367,0.150752014,-0.0097974984,0.01660791175,0.0008397172205,-0.008009963669,-0.006024778355,-0.002166899852,0.002462251112,-0.005114495754,XArbitraryCorrectedZVertical,0.008649067953,-0.004259339999,0.07526059449,0.9971172214,-0.009795990773,-0.01660714857,-0.9998140931,45.73340988,-15.73483276,23.36212158,0,1440551.099,automotive,0,2018-02-25 16:49:08.760 -0500,null,0,0,0,0,null,1440553.647,0,-0.6341553,99.77414,10.41.2.84,100.110.18.251,1,1,0.7,-4.618352,-24.76114,0
2018-02-25 16:49:14.094 -0500,50,3DCCE5A0-AD64-4006-9610-DD3C35995850,my_iOS_device,1519595351,38.03569692,-78.49814737,152.9786,-1,-1,10,65,-9999,1519595354,45.86557007,-15.66242218,23.20349121,282.8085022,292.5841675,180,1440556.431,-0.01304626465,-0.02160644531,-1.009658813,1440556.404,-0.008598814528,-0.01292325551,-0.003135073235,1440556.401,0.1506434387,-0.01029257158,0.01656275353,-0.004497549497,-0.003652787767,-0.00173966866,-0.001748207025,-0.001702774316,-0.002143263817,XArbitraryCorrectedZVertical,0.008644938469,-0.004508333281,0.07520444691,0.99712044,-0.01029097848,-0.01656199619,-0.9998098612,46.01495361,-15.78575134,23.14123535,0,1440551.099,automotive,0,2018-02-25 16:49:08.760 -0500,null,0,0,0,0,null,1440553.647,0,-0.6341553,99.77414,10.41.2.84,100.110.18.251,1,1,0.7,-1.967501,-22.63916,0
2018-02-25 16:49:14.154 -0500,51,3DCCE5A0-AD64-4006-9610-DD3C35995850,my_iOS_device,1519595351,38.03569692,-78.49814737,152.9786,-1,-1,10,65,-9999,1519595354,45.80898666,-15.6941452,23.02545166,282.8164063,292.5920715,180,1440556.491,-0.01264953613,-0.01666259766,-1.003890991,1440556.464,0.01068460229,-0.004388356844,-0.005375324344,1440556.471,0.1504858228,-0.01043040628,0.01700141793,0.01795009151,-0.001614685636,-0.00184613443,0.004645628855,0.001161975786,-0.01751762629,XArbitraryCorrectedZVertical,0.008868462406,-0.004561237991,0.07512400299,0.9971241355,-0.01042870991,-0.01700059883,-0.9998010993,45.86174774,-15.48353577,23.25585938,0,1440551.099,automotive,0,2018-02-25 16:49:08.760 -0500,null,0,0,0,0,null,1440553.647,0,-0.6341553,99.77414,10.41.2.84,100.110.18.251,1,1,0.7,-1.967501,-25.12852,0
2018-02-25 16:49:14.214 -0500,52,3DCCE5A0-AD64-4006-9610-DD3C35995850,my_iOS_device,1519595351,38.03569692,-78.49814737,152.9786,-1,-1,10,65,-9999,1519595354,45.61790848,-15.90991211,23.19909668,282.8135681,292.5892334,180,1440556.551,-0.01290893555,-0.01608276367,-1.015930176,1440556.523,-0.03216885544,-0.02575969196,-0.003000849916,1440556.541,0.15055771,-0.0112547658,0.01568835377,-0.01416714583,-0.01332199015,-0.0006094260607,-0.0002062069252,0.00583053194,-0.008181989193,XArbitraryCorrectedZVertical,0.008244967088,-0.005021316465,0.07516027242,0.9971244931,-0.01125314366,-0.01568770967,-0.9998136163,45.68820572,-15.77070618,23.10760498,0,1440551.099,automotive,0,2018-02-25 16:49:08.760 -0500,null,0,0,0,0,null,1440553.647,0,-0.6341553,99.77414,10.41.2.84,100.110.18.251,1,1,0.7,-1.967501,-27.51124,0
2018-02-25 16:49:14.275 -0500,53,3DCCE5A0-AD64-4006-9610-DD3C35995850,my_iOS_device,1519595351,38.03569692,-78.49814737,152.9786,-1,-1,10,65,-9999,1519595354,45.55165863,-15.77124023,23.17547607,282.8144226,292.5900879,180,1440556.61,-0.01205444336,-0.01582336426,-1.007858276,1440556.583,0.01839392102,0.03012248246,-0.02042910872,1440556.576,0.1505126048,-0.01120913709,0.01580552309,0.01265777834,0.008137853816,-0.002914442448,0.003990095109,0.004299737513,-0.0004623532295,XArbitraryCorrectedZVertical,0.00830155611,-0.00499434676,0.0751376152,0.9971258044,-0.01120750234,-0.01580486447,-0.999812305,45.55165863,-15.77124023,23.17547607,0,1440551.099,automotive,0,2018-02-25 16:49:08.760 -0500,null,0,0,0,0,null,1440553.647,0,-0.6341553,99.77414,10.41.2.84,100.110.18.251,1,1,0.7,-0.1134451,-24.84021,0
2018-02-25 16:49:14.333 -0500,54,3DCCE5A0-AD64-4006-9610-DD3C35995850,my_iOS_device,1519595351,38.03569692,-78.49814737,152.9786,-1,-1,10,65,-9999,1519595354,45.62154388,-15.11194611,23.45837402,282.8110962,292.5867615,180,1440556.67,-0.009658813477,-0.01937866211,-1.003616333,1440556.643,0.0256313276,-0.003383546165,-0.001175252989,1440556.576,0.1505126048,-0.01120913709,0.01580552309,0.01265777834,0.008137853816,-0.002914442448,0.003990095109,0.004299737513,-0.0004623532295,XArbitraryCorrectedZVertical,0.00830155611,-0.00499434676,0.0751376152,0.9971258044,-0.01120750234,-0.01580486447,-0.999812305,45.55165863,-15.77124023,23.17547607,0,1440551.099,automotive,0,2018-02-25 16:49:08.760 -0500,null,0,0,0,0,null,1440553.647,0,-0.6341553,99.77414,10.41.2.84,100.110.18.251,1,1,0.7,-0.1134451,-27.12142,0
2018-02-25 16:49:14.393 -0500,55,3DCCE5A0-AD64-4006-9610-DD3C35995850,my_iOS_device,1519595351,38.03569692,-78.49814737,152.9786,-1,-1,10,65,-9999,1519595354,45.54736328,-15.84817505,23.1461792,282.8070374,292.5827026,180,1440556.73,-0.0113067627,-0.01770019531,-1.005645752,1440556.702,-0.03641499948,-0.01925199152,-0.001928661261,1440556.576,0.1505126048,-0.01120913709,0.01580552309,0.01265777834,0.008137853816,-0.002914442448,0.003990095109,0.004299737513,-0.0004623532295,XArbitraryCorrectedZVertical,0.00830155611,-0.00499434676,0.0751376152,0.9971258044,-0.01120750234,-0.01580486447,-0.999812305,45.55165863,-15.77124023,23.17547607,0,1440551.099,automotive,0,2018-02-25 16:49:08.760 -0500,null,0,0,0,0,null,1440553.647,0,-0.6341553,99.77414,10.41.2.84,100.110.18.251,1,1,0.7,-0.1134451,-28.83986,0
2018-02-25 16:49:14.452 -0500,56,3DCCE5A0-AD64-4006-9610-DD3C35995850,my_iOS_device,1519595351,38.03569692,-78.49814737,152.9786,-1,-1,10,65,-9999,1519595354,45.79612732,-15.80479431,23.52398682,282.7974854,292.5731506,180,1440556.789,-0.006454467773,-0.008026123047,-1.003921509,1440556.762,-0.04822771681,-0.02782470707,0.002412823948,1440556.576,0.1505126048,-0.01120913709,0.01580552309,0.01265777834,0.008137853816,-0.002914442448,0.003990095109,0.004299737513,-0.0004623532295,XArbitraryCorrectedZVertical,0.00830155611,-0.00499434676,0.0751376152,0.9971258044,-0.01120750234,-0.01580486447,-0.999812305,45.55165863,-15.77124023,23.17547607,0,1440551.099,automotive,0,2018-02-25 16:49:08.760 -0500,null,0,0,0,0,null,1440553.647,0,-0.6341553,99.77414,10.41.2.84,100.110.18.251,1,1,0.7,-0.1134451,-10.65233,0
2018-02-25 16:49:14.521 -0500,57,3DCCE5A0-AD64-4006-9610-DD3C35995850,my_iOS_device,1519595351,38.03569692,-78.49814737,152.9786,-1,-1,10,65,-9999,1519595354,45.77844238,-15.85939026,23.23944092,282.7975464,292.5732117,180,1440556.849,-0.01564025879,-0.01733398438,-1.009780884,1440556.822,-0.00749946163,-0.007528490086,-0.004219246115,1440556.576,0.1505126048,-0.01120913709,0.01580552309,0.01265777834,0.008137853816,-0.002914442448,0.003990095109,0.004299737513,-0.0004623532295,XArbitraryCorrectedZVertical,0.00830155611,-0.00499434676,0.0751376152,0.9971258044,-0.01120750234,-0.01580486447,-0.999812305,45.55165863,-15.77124023,23.17547607,0,1440551.099,automotive,0,2018-02-25 16:49:08.760 -0500,null,0,0,0,0,null,1440553.647,0,-0.6341553,99.77414,10.41.2.84,100.110.18.251,1,1,0.7,-0.1134451,-13.69725,0
2018-02-25 16:49:14.572 -0500,58,3DCCE5A0-AD64-4006-9610-DD3C35995850,my_iOS_device,1519595351,38.03569692,-78.49814737,152.9786,-1,-1,10,65,-9999,1519595355,45.92622757,-15.87126923,23.1918335,282.7998962,292.5755615,180,1440556.909,-0.01100158691,-0.008804321289,-1.004821777,1440556.882,-0.009640643146,-0.00751517428,-0.00314226377,1440556.576,0.1505126048,-0.01120913709,0.01580552309,0.01265777834,0.008137853816,-0.002914442448,0.003990095109,0.004299737513,-0.0004623532295,XArbitraryCorrectedZVertical,0.00830155611,-0.00499434676,0.0751376152,0.9971258044,-0.01120750234,-0.01580486447,-0.999812305,45.55165863,-15.77124023,23.17547607,0,1440551.099,automotive,0,2018-02-25 16:49:08.760 -0500,null,0,0,0,0,null,1440553.647,0,-0.6341553,99.77414,10.41.2.84,100.110.18.251,1,1,0.7,-0.1134451,-15.90663,0
2018-02-25 16:49:14.632 -0500,59,3DCCE5A0-AD64-4006-9610-DD3C35995850,my_iOS_device,1519595351,38.03569692,-78.49814737,152.9786,-1,-1,10,65,-9999,1519595355,46.01611328,-15.72969818,22.9744873,282.8003845,292.5760498,180,1440556.969,-0.006790161133,-0.01454162598,-1.014541626,1440556.941,-0.00854661657,-0.003200853314,-0.004224039805,1440556.576,0.1505126048,-0.01120913709,0.01580552309,0.01265777834,0.008137853816,-0.002914442448,0.003990095109,0.004299737513,-0.0004623532295,XArbitraryCorrectedZVertical,0.00830155611,-0.00499434676,0.0751376152,0.9971258044,-0.01120750234,-0.01580486447,-0.999812305,45.55165863,-15.77124023,23.17547607,0,1440551.099,automotive,0,2018-02-25 16:49:08.760 -0500,null,0,0,0,0,null,1440553.647,0,-0.6341553,99.77414,10.41.2.84,100.110.18.251,1,1,0.7,-0.1134451,-19.18433,0
2018-02-25 16:49:14.691 -0500,60,3DCCE5A0-AD64-4006-9610-DD3C35995850,my_iOS_device,1519595351,38.03569692,-78.49814737,152.9786,-1,-1,10,65,-9999,1519595355,46.05328369,-15.85673523,23.07452393,282.8056641,292.5813293,180,1440557.028,-0.01489257813,-0.01693725586,-1.001968384,1440557.001,-0.006401173996,-0.003215767016,-0.006368417115,1440556.576,0.1505126048,-0.01120913709,0.01580552309,0.01265777834,0.008137853816,-0.002914442448,0.003990095109,0.004299737513,-0.0004623532295,XArbitraryCorrectedZVertical,0.00830155611,-0.00499434676,0.0751376152,0.9971258044,-0.01120750234,-0.01580486447,-0.999812305,45.55165863,-15.77124023,23.17547607,0,1440551.099,automotive,0,2018-02-25 16:49:08.760 -0500,null,0,0,0,0,null,1440554.592,0,-0.6341553,99.77414,10.41.2.84,100.110.18.251,1,1,0.7,-0.1134451,-21.38255,0
2018-02-25 16:49:14.760 -0500,61,3DCCE5A0-AD64-4006-9610-DD3C35995850,my_iOS_device,1519595351,38.03569692,-78.49814737,152.9786,-1,-1,10,65,-9999,1519595355,45.92882538,-15.72923279,23.29174805,282.8067932,292.5824585,180,1440557.088,-0.01103210449,-0.01028442383,-1.009567261,1440557.061,-0.008564726066,-0.004276504078,-0.001019458065,1440556.576,0.1505126048,-0.01120913709,0.01580552309,0.01265777834,0.008137853816,-0.002914442448,0.003990095109,0.004299737513,-0.0004623532295,XArbitraryCorrectedZVertical,0.00830155611,-0.00499434676,0.0751376152,0.9971258044,-0.01120750234,-0.01580486447,-0.999812305,45.55165863,-15.77124023,23.17547607,0,1440551.099,automotive,0,2018-02-25 16:49:08.760 -0500,null,0,0,0,0,null,1440554.592,0,-0.6341553,99.77414,10.41.2.84,100.110.18.251,1,1,0.7,-0.1134451,-24.65173,0
2018-02-25 16:49:14.811 -0500,62,3DCCE5A0-AD64-4006-9610-DD3C35995850,my_iOS_device,1519595351,38.03569692,-78.49814737,152.9786,-1,-1,10,65,-9999,1519595355,45.98328781,-15.92127991,23.08508301,282.808197,292.5838623,180,1440557.148,-0.01637268066,-0.01637268066,-1.009979248,1440557.12,-0.007519701654,-0.01076822555,-0.003144660615,1440556.576,0.1505126048,-0.01120913709,0.01580552309,0.01265777834,0.008137853816,-0.002914442448,0.003990095109,0.004299737513,-0.0004623532295,XArbitraryCorrectedZVertical,0.00830155611,-0.00499434676,0.0751376152,0.9971258044,-0.01120750234,-0.01580486447,-0.999812305,45.55165863,-15.77124023,23.17547607,0,1440551.099,automotive,0,2018-02-25 16:49:08.760 -0500,null,0,0,0,0,null,1440554.592,0,-0.6341553,99.77414,10.41.2.84,100.110.18.251,1,1,0.7,-0.1134451,-26.82044,0
2018-02-25 16:49:14.870 -0500,63,3DCCE5A0-AD64-4006-9610-DD3C35995850,my_iOS_device,1519595351,38.03569692,-78.49814737,152.9786,-1,-1,10,65,-9999,1519595355,45.83561707,-15.66318512,23.33654785,282.8101807,292.5858459,180,1440557.207,-0.01486206055,-0.009857177734,-1.004135132,1440557.18,-0.006383064501,0.002189651048,-0.00424561141,1440556.576,0.1505126048,-0.01120913709,0.01580552309,0.01265777834,0.008137853816,-0.002914442448,0.003990095109,0.004299737513,-0.0004623532295,XArbitraryCorrectedZVertical,0.00830155611,-0.00499434676,0.0751376152,0.9971258044,-0.01120750234,-0.01580486447,-0.999812305,45.55165863,-15.77124023,23.17547607,0,1440551.099,automotive,0,2018-02-25 16:49:08.760 -0500,null,0,0,0,0,null,1440554.592,0,-0.6341553,99.77414,10.41.2.84,100.110.18.251,1,1,0.7,-0.1134451,-29.70493,0
2018-02-25 16:49:14.930 -0500,64,3DCCE5A0-AD64-4006-9610-DD3C35995850,my_iOS_device,1519595351,38.03569692,-78.49814737,152.9786,-1,-1,10,65,-9999,1519595355,46.07521439,-16.01741791,23.23120117,282.8113403,292.5870056,180,1440557.267,-0.01554870605,-0.01637268066,-1.012084961,1440557.24,-0.007492004779,-0.00428396093,-0.00209164672,1440556.576,0.1505126048,-0.01120913709,0.01580552309,0.01265777834,0.008137853816,-0.002914442448,0.003990095109,0.004299737513,-0.0004623532295,XArbitraryCorrectedZVertical,0.00830155611,-0.00499434676,0.0751376152,0.9971258044,-0.01120750234,-0.01580486447,-0.999812305,45.55165863,-15.77124023,23.17547607,0,1440551.099,automotive,0,2018-02-25 16:49:08.760 -0500,null,0,0,0,0,null,1440554.592,0,-0.6341553,99.77414,10.41.2.84,100.110.18.251,1,1,0.7,-0.1134451,-32.16184,0
2018-02-25 16:49:14.993 -0500,65,3DCCE5A0-AD64-4006-9610-DD3C35995850,my_iOS_device,1519595351,38.03569692,-78.49814737,152.9786,-1,-1,10,65,-9999,1519595355,46.01863098,-15.56258392,23.38439941,282.815094,292.5907593,180,1440557.327,-0.01498413086,-0.01011657715,-1.003723145,1440557.299,-0.004283428297,-0.00538517804,-0.004238420875,1440556.576,0.1505126048,-0.01120913709,0.01580552309,0.01265777834,0.008137853816,-0.002914442448,0.003990095109,0.004299737513,-0.0004623532295,XArbitraryCorrectedZVertical,0.00830155611,-0.00499434676,0.0751376152,0.9971258044,-0.01120750234,-0.01580486447,-0.999812305,45.55165863,-15.77124023,23.17547607,0,1440551.099,automotive,0,2018-02-25 16:49:08.760 -0500,null,0,0,0,0,null,1440554.592,0,-0.6341553,99.77414,10.41.2.84,100.110.18.251,1,1,0.7,-0.1134451,-34.2007,0
2018-02-25 16:49:15.049 -0500,66,3DCCE5A0-AD64-4006-9610-DD3C35995850,my_iOS_device,1519595351,38.03569692,-78.49814737,152.9786,-1,-1,10,65,-9999,1519595355,46.1921463,-15.068573,23.67327881,282.8159485,292.5916138,180,1440557.386,-0.009475708008,-0.01107788086,-1.01159668,1440557.359,-0.00857537871,-0.006437392987,-0.001014664375,1440556.576,0.1505126048,-0.01120913709,0.01580552309,0.01265777834,0.008137853816,-0.002914442448,0.003990095109,0.004299737513,-0.0004623532295,XArbitraryCorrectedZVertical,0.00830155611,-0.00499434676,0.0751376152,0.9971258044,-0.01120750234,-0.01580486447,-0.999812305,45.55165863,-15.77124023,23.17547607,0,1440551.099,automotive,0,2018-02-25 16:49:08.760 -0500,null,0,0,0,0,null,1440554.592,0,-0.6341553,99.77414,10.41.2.84,100.110.18.251,1,1,0.7,-0.1134451,-37.17436,0
2018-02-25 16:49:15.109 -0500,67,3DCCE5A0-AD64-4006-9610-DD3C35995850,my_iOS_device,1519595351,38.03569692,-78.49814737,152.9786,-1,-1,10,65,-9999,1519595355,46.16085434,-15.42501831,23.3258667,282.817627,292.5932922,180,1440557.446,-0.01390075684,-0.01635742188,-1.00151062,1440557.419,-0.006418218227,-0.00320937543,-0.002098837255,1440556.576,0.1505126048,-0.01120913709,0.01580552309,0.01265777834,0.008137853816,-0.002914442448,0.003990095109,0.004299737513,-0.0004623532295,XArbitraryCorrectedZVertical,0.00830155611,-0.00499434676,0.0751376152,0.9971258044,-0.01120750234,-0.01580486447,-0.999812305,45.55165863,-15.77124023,23.17547607,0,1440551.099,automotive,0,2018-02-25 16:49:08.760 -0500,null,0,0,0,0,null,1440554.592,0,-0.6341553,99.77414,10.41.2.84,100.110.18.251,1,1,0.7,-0.1134451,-38.97817,0
2018-02-25 16:49:15.169 -0500,68,3DCCE5A0-AD64-4006-9610-DD3C35995850,my_iOS_device,1519595351,38.03569692,-78.49814737,152.9786,-1,-1,10,65,-9999,1519595355,46.02191544,-15.71739197,23.25457764,282.8180847,292.59375,180,1440557.506,-0.005310058594,-0.00846862793,-1.003540039,1440557.478,-0.007496265836,-0.004282363033,-0.001024251755,1440556.576,0.1505126048,-0.01120913709,0.01580552309,0.01265777834,0.008137853816,-0.002914442448,0.003990095109,0.004299737513,-0.0004623532295,XArbitraryCorrectedZVertical,0.00830155611,-0.00499434676,0.0751376152,0.9971258044,-0.01120750234,-0.01580486447,-0.999812305,45.55165863,-15.77124023,23.17547607,0,1440551.099,automotive,0,2018-02-25 16:49:08.760 -0500,null,0,0,0,0,null,1440554.592,0,-0.6341553,99.77414,10.41.2.84,100.110.18.251,1,1,0.7,-0.1134451,-41.49898,0
2018-02-25 16:49:15.237 -0500,69,3DCCE5A0-AD64-4006-9610-DD3C35995850,my_iOS_device,1519595351,38.03569692,-78.49814737,152.9786,-1,-1,10,65,-9999,1519595355,46.0083046,-15.77809906,23.06542969,282.8233948,292.5990601,180,1440557.565,-0.01498413086,-0.01390075684,-1.009490967,1440557.538,-0.00749946163,-0.007528490086,-0.004219246115,1440556.576,0.1505126048,-0.01120913709,0.01580552309,0.01265777834,0.008137853816,-0.002914442448,0.003990095109,0.004299737513,-0.0004623532295,XArbitraryCorrectedZVertical,0.00830155611,-0.00499434676,0.0751376152,0.9971258044,-0.01120750234,-0.01580486447,-0.999812305,45.55165863,-15.77124023,23.17547607,0,1440551.099,automotive,0,2018-02-25 16:49:08.760 -0500,null,0,0,0,0,null,1440554.592,0,-0.6341553,99.77414,10.41.2.84,100.110.18.251,1,1,0.7,-1.785282,-43.90625,0
2018-02-25 16:49:15.288 -0500,70,3DCCE5A0-AD64-4006-9610-DD3C35995850,my_iOS_device,1519595351,38.03569692,-78.49814737,152.9786,-1,-1,10,65,-9999,1519595355,46.14543915,-15.68262482,23.25244141,282.8258667,292.601532,180,1440557.625,-0.01547241211,-0.01065063477,-1.003677368,1440557.598,-0.006420348756,-0.005373460131,-0.004228833495,1440556.576,0.1505126048,-0.01120913709,0.01580552309,0.01265777834,0.008137853816,-0.002914442448,0.003990095109,0.004299737513,-0.0004623532295,XArbitraryCorrectedZVertical,0.00830155611,-0.00499434676,0.0751376152,0.9971258044,-0.01120750234,-0.01580486447,-0.999812305,45.55165863,-15.77124023,23.17547607,0,1440551.099,automotive,0,2018-02-25 16:49:08.760 -0500,null,0,0,0,0,null,1440554.592,0,-0.6341553,99.77414,10.41.2.84,100.110.18.251,1,1,0.7,-2.89984,-45.45042,0
2018-02-25 16:49:15.348 -0500,71,3DCCE5A0-AD64-4006-9610-DD3C35995850,my_iOS_device,1519595351,38.03569692,-78.49814737,152.9786,-1,-1,10,65,-9999,1519595355,46.01646042,-15.96214294,23.26239014,282.8252869,292.6009521,180,1440557.685,-0.009155273438,-0.01750183105,-1.011627197,1440557.657,-0.00108550446,-0.004317516759,-0.001053013895,1440556.576,0.1505126048,-0.01120913709,0.01580552309,0.01265777834,0.008137853816,-0.002914442448,0.003990095109,0.004299737513,-0.0004623532295,XArbitraryCorrectedZVertical,0.00830155611,-0.00499434676,0.0751376152,0.9971258044,-0.01120750234,-0.01580486447,-0.999812305,45.55165863,-15.77124023,23.17547607,0,1440551.099,automotive,0,2018-02-25 16:49:08.760 -0500,null,0,0,0,0,null,1440554.592,0,-0.6341553,99.77414,10.41.2.84,100.110.18.251,1,1,0.7,-4.014398,-46.47319,0
