loggingTime(txt),loggingSample(N),identifierForVendor(txt),deviceID(txt),locationTimestamp_since1970(s),locationLatitude(WGS84),locationLongitude(WGS84),locationAltitude(m),locationSpeed(m/s),locationCourse(°),locationVerticalAccuracy(m),locationHorizontalAccuracy(m),locationFloor(Z),locationHeadingTimestamp_since1970(s),locationHeadingX(µT),locationHeadingY(µT),locationHeadingZ(µT),locationTrueHeading(°),locationMagneticHeading(°),locationHeadingAccuracy(°),accelerometerTimestamp_sinceReboot(s),accelerometerAccelerationX(G),accelerometerAccelerationY(G),accelerometerAccelerationZ(G),gyroTimestamp_sinceReboot(s),gyroRotationX(rad/s),gyroRotationY(rad/s),gyroRotationZ(rad/s),motionTimestamp_sinceReboot(s),motionYaw(rad),motionRoll(rad),motionPitch(rad),motionRotationRateX(rad/s),motionRotationRateY(rad/s),motionRotationRateZ(rad/s),motionUserAccelerationX(G),motionUserAccelerationY(G),motionUserAccelerationZ(G),motionAttitudeReferenceFrame(txt),motionQuaternionX(R),motionQuaternionY(R),motionQuaternionZ(R),motionQuaternionW(R),motionGravityX(G),motionGravityY(G),motionGravityZ(G),motionMagneticFieldX(µT),motionMagneticFieldY(µT),motionMagneticFieldZ(µT),motionMagneticFieldCalibrationAccuracy(Z),activityTimestamp_sinceReboot(s),activity(txt),activityActivityConfidence(Z),activityActivityStartDate(txt),pedometerStartDate(txt),pedometerNumberofSteps(N),pedometerDistance(m),pedometerFloorAscended(N),pedometerFloorDescended(N),pedometerEndDate(txt),altimeterTimestamp_sinceReboot(s),altimeterReset(bool),altimeterRelativeAltitude(m),altimeterPressure(kPa),IP_en0(txt),IP_pdp_ip0(txt),deviceOrientation(Z),batteryState(R),batteryLevel(Z),avAudioRecorderPeakPower(dB),avAudioRecorderAveragePower(dB),state(N)
56:15.8,1,3DCCE5A0-AD64-4006-9610-DD3C35995850,my_iOS_device,1519498575,38.03575485,-78.49849194,155.8714,0.15,-1,6,5,-9999,1519498576,-8.527454376,16.52076721,-4.072387695,73.5812149,83.35686493,30,1403477.837,0.135040283,-0.151428223,-1.001022339,1403477.807,-0.218190658,-0.053925017,-0.010641193,1403477.805,-2.015898857,0.125589285,0.146069846,-0.188702121,-0.064057395,0.003569181,0.008795492,-0.008944273,0.0032565,XArbitraryCorrectedZVertical,-0.09179154,0.028196702,0.839377582,-0.534992695,0.123925462,-0.145550966,-0.981558502,-8.587703705,16.29698944,-4.286804199,2,1403477.449,automotive,2,56:15.4,null,0,0,0,0,null,1403474.858,0,0.01320648,100.2191,10.41.2.84,100.110.18.251,1,1,0.69,-22.42558,-37.4812,0
56:15.8,2,3DCCE5A0-AD64-4006-9610-DD3C35995850,my_iOS_device,1519498575,38.03575485,-78.49849194,155.8714,0.15,-1,6,5,-9999,1519498576,-8.776508331,16.57189941,-3.923583984,73.73062134,83.50627136,30,1403477.897,0.128875732,-0.133865356,-1.0078125,1403477.867,-0.106377307,-0.21893075,-0.119654496,1403477.874,-2.019426894,0.116634119,0.13644387,-0.098153494,-0.220324665,-0.121382728,0.019950345,-0.001735449,-0.020556927,XArbitraryCorrectedZVertical,-0.085444622,0.026678625,0.841158271,-0.533322096,0.115288302,-0.136020899,-0.983974934,-9.039745331,16.5743103,-3.923950195,2,1403477.449,automotive,2,56:15.4,null,0,0,0,0,null,1403474.858,0,0.01320648,100.2191,10.41.2.84,100.110.18.251,1,1,0.69,-23.54014,-39.28454,0
56:15.9,3,3DCCE5A0-AD64-4006-9610-DD3C35995850,my_iOS_device,1519498575,38.03575485,-78.49849194,155.8714,0.15,-1,6,5,-9999,1519498576,-9.114635468,16.4914093,-3.641357422,74.83898163,84.61463165,30,1403477.956,0.096389771,-0.13671875,-1.001281738,1403477.927,-0.151124805,-0.309657724,-0.263350147,1403477.944,-2.033554272,0.099399649,0.12569104,-0.101384826,-0.322047651,-0.239620149,-0.002627991,-0.008352414,-0.003920615,XArbitraryCorrectedZVertical,-0.075166032,0.027258957,0.846046984,-0.527070761,0.098453194,-0.125360355,-0.987214029,-8.934902191,16.49598694,-3.643554688,2,1403477.449,automotive,2,56:15.4,null,0,0,0,0,null,1403474.858,0,0.01320648,100.2191,10.41.2.84,100.110.18.251,1,1,0.69,-25.21197,-42.30046,0
56:16.0,4,3DCCE5A0-AD64-4006-9610-DD3C35995850,my_iOS_device,1519498575,38.03575485,-78.49849194,155.8714,0.15,-1,6,5,-9999,1519498576,-9.4661026,16.34683228,-3.434143066,75.49423981,85.26988983,30,1403478.016,0.082611084,-0.10118103,-0.98336792,1403477.986,-0.106782107,-0.391969642,-0.231347472,1403478.014,-2.049313402,0.076123867,0.117621913,-0.192972526,-0.297842294,-0.285159737,0.007543951,0.013484314,0.004832327,XArbitraryCorrectedZVertical,-0.062967584,0.0304609,0.851277649,-0.520025671,0.075524896,-0.117350884,-0.990214407,-9.4661026,16.34683228,-3.434143066,2,1403477.449,automotive,2,56:15.4,null,0,0,0,0,null,1403474.858,0,0.01320648,100.2191,10.41.2.84,100.110.18.251,1,1,0.69,-26.32653,-43.90329,0
56:16.0,5,3DCCE5A0-AD64-4006-9610-DD3C35995850,my_iOS_device,1519498575,38.03575485,-78.49849194,155.8714,0.15,-1,6,5,-9999,1519498576,-9.785556793,16.24593353,-3.131225586,76.63993835,86.41558838,30,1403478.076,0.070648193,-0.092086792,-0.975769043,1403478.046,-0.206973423,-0.085968971,-0.450381553,1403478.048,-2.062589777,0.07069774,0.109465206,-0.204202175,-0.100281782,-0.440314561,0.002598882,0.01339101,0.006988645,XArbitraryCorrectedZVertical,-0.058361486,0.028778132,0.855150342,-0.514272928,0.07021606,-0.109246723,-0.991531491,-9.642822266,16.20278168,-3.124572754,2,1403477.449,automotive,2,56:15.4,null,0,0,0,0,null,1403474.858,0,0.01320648,100.2191,10.41.2.84,100.110.18.251,1,1,0.69,-27.99837,-40.53151,0
56:16.1,6,3DCCE5A0-AD64-4006-9610-DD3C35995850,my_iOS_device,1519498576,38.03575485,-78.49849194,156.7762,0,-1,6,5,-9999,1519498576,-10.01872253,15.8533783,-3.139404297,77.99971771,87.77536774,30,1403478.135,0.066940308,-0.117889404,-0.995178223,1403478.106,0.063527045,-0.03014938,-0.42610391,1403478.118,-2.095076358,0.074317377,0.10515139,0.075893737,-0.027188368,-0.389432252,-0.003694229,-0.016258098,-0.002103865,XArbitraryCorrectedZVertical,-0.05837705,0.026950246,0.863424599,-0.500356853,0.073838882,-0.104957722,-0.991731584,-10.01872253,15.8533783,-3.139404297,2,1403477.449,automotive,2,56:15.4,null,0,0,0,0,null,1403474.858,0,0.01320648,100.2191,10.41.2.84,100.110.18.251,1,1,0.69,-29.11293,-41.72673,0
56:16.2,7,3DCCE5A0-AD64-4006-9610-DD3C35995850,my_iOS_device,1519498576,38.03575485,-78.49849194,156.7762,0,-1,6,5,-9999,1519498576,-10.45126724,15.72904205,-2.97088623,78.78282166,88.55847168,30,1403478.195,0.048934937,-0.101318359,-0.988998413,1403478.165,-0.078904137,-0.077562969,-0.13609925,1403478.188,-2.109461245,0.070844935,0.102724525,-0.086759128,-0.055036433,-0.095109589,-0.02327814,0.002247937,0.003295839,XArbitraryCorrectedZVertical,-0.056080643,0.027172878,0.867176712,-0.494079411,0.070412539,-0.102543958,-0.992233217,-10.33319473,15.53419495,-3.051574707,2,1403477.449,automotive,2,56:15.4,null,0,0,0,0,null,1403474.858,0,0.01320648,100.2191,10.41.2.84,100.110.18.251,1,1,0.69,-31.34204,-40.4223,0
56:16.2,8,3DCCE5A0-AD64-4006-9610-DD3C35995850,my_iOS_device,1519498576,38.03575485,-78.49849194,156.7762,0,-1,6,5,-9999,1519498576,-10.59275818,15.72524261,-2.879455566,79.02979279,88.80544281,30,1403478.255,0.067596436,-0.113098145,-1.015808105,1403478.225,-0.0781723,-0.05146399,-0.019815516,1403478.222,-2.111355441,0.069491752,0.099789435,-0.082637839,-0.031188358,-0.027938372,-0.008924991,-0.023911253,-0.000571012,XArbitraryCorrectedZVertical,-0.054748468,0.026283737,0.867771626,-0.493231505,0.069090396,-0.099623904,-0.992623568,-10.59275818,15.72524261,-2.879455566,2,1403477.449,automotive,2,56:15.4,null,0,0,0,0,null,1403475.804,0,0.01320648,100.2191,10.41.2.84,100.110.18.251,1,1,0.69,-32.4566,-34.11803,0
56:16.3,9,3DCCE5A0-AD64-4006-9610-DD3C35995850,my_iOS_device,1519498576,38.03575485,-78.49849194,156.7762,0,-1,6,5,-9999,1519498576,-10.59769821,15.92234039,-2.741821289,79.0269165,88.80256653,30,1403478.315,0.060287476,-0.10395813,-0.970779419,1403478.285,0.040865674,-0.167705379,-0.005152418,1403478.292,-2.110872986,0.062724875,0.101738425,0.040528558,-0.16688332,-0.000439155,0.006045535,-0.001449078,0.009794652,XArbitraryCorrectedZVertical,-0.052296922,0.028787106,0.867775202,-0.493351519,0.06235962,-0.101563007,-0.992872655,-10.32328796,15.78840637,-2.952331543,2,1403477.449,automotive,2,56:15.4,null,0,0,0,0,null,1403475.804,0,0.01320648,100.2191,10.41.2.84,100.110.18.251,1,1,0.69,-29.45553,-35.27776,0
56:16.3,10,3DCCE5A0-AD64-4006-9610-DD3C35995850,my_iOS_device,1519498576,38.03575485,-78.49849194,156.7762,0,-1,6,5,-9999,1519498576,-10.23752213,16.00727081,-2.908081055,78.91049957,88.6861496,30,1403478.374,0.049530029,-0.106063843,-1.003677368,1403478.344,-0.007852064,-0.032292426,0.053475209,1403478.362,-2.109008031,0.05661648,0.101244763,0.039914742,-0.006845985,0.082464948,-0.001059651,-0.004000142,-0.0039379,XArbitraryCorrectedZVertical,-0.049553201,0.030033005,0.867484808,-0.494070321,0.056296464,-0.101071887,-0.993285,-10.23752213,16.00727081,-2.908081055,2,1403477.449,automotive,2,56:15.4,null,0,0,0,0,null,1403475.804,0,0.01320648,100.2191,10.41.2.84,100.110.18.251,1,1,0.69,-29.45553,-35.96621,0
56:16.4,11,3DCCE5A0-AD64-4006-9610-DD3C35995850,my_iOS_device,1519498576,38.03575485,-78.49849194,156.7762,0,-1,6,5,-9999,1519498576,-10.31145477,16.09211731,-2.840209961,78.55122375,88.32687378,30,1403478.434,0.065872192,-0.110153198,-1.035400391,1403478.404,0.154699832,-0.134592433,0.15863918,1403478.431,-2.100425807,0.048454806,0.112017937,0.284185261,-0.294487417,0.098008655,0.018487599,0.003034428,-0.045992792,XArbitraryCorrectedZVertical,-0.048818395,0.036519747,0.865238428,-0.497632504,0.048132274,-0.111783817,-0.992566168,-10.46147537,15.89256287,-2.747924805,2,1403477.449,automotive,2,56:15.4,null,0,0,0,0,null,1403475.804,0,0.01320648,100.2191,10.41.2.84,100.110.18.251,1,1,0.69,-29.45553,-37.31199,0
56:16.4,12,3DCCE5A0-AD64-4006-9610-DD3C35995850,my_iOS_device,1519498576,38.03575485,-78.49849194,156.7762,0,-1,6,5,-9999,1519498576,-10.35927582,16.01022339,-2.797912598,78.24762726,88.02327728,30,1403478.494,0.025970459,-0.112533569,-0.973983765,1403478.464,0.119829466,-0.296516356,0.129265046,1403478.466,-2.096739286,0.03685735,0.120493069,0.151478753,-0.305585653,0.138120458,0.009453941,-0.008292548,0.011102915,XArbitraryCorrectedZVertical,-0.045979455,0.042991761,0.864336371,-0.498951435,0.036581829,-0.120201714,-0.992075205,-10.35927582,16.01022339,-2.797912598,2,1403477.449,automotive,2,56:15.4,null,0,0,0,0,null,1403475.804,0,0.01320648,100.2191,10.41.2.84,100.110.18.251,1,1,0.69,-29.45553,-39.16552,0
56:16.5,13,3DCCE5A0-AD64-4006-9610-DD3C35995850,my_iOS_device,1519498576,38.03575485,-78.49849194,156.7762,0,-1,6,5,-9999,1519498576,-10.36392975,16.11564636,-2.731018066,78.04278564,87.81843567,30,1403478.553,0.034545898,-0.109313965,-0.982604981,1403478.523,-0.285358776,0.10944367,-0.113166237,1403478.536,-2.096018818,0.032031267,0.110120431,-0.289699048,0.154569164,-0.122414865,0.000165876,0.008961111,0.021997452,XArbitraryCorrectedZVertical,-0.041328821,0.039691858,0.864565373,-0.499235034,0.031831805,-0.109898001,-0.993432999,-10.31389618,16.31277466,-2.346618652,2,1403477.449,automotive,2,56:15.4,null,0,0,0,0,null,1403475.804,0,0.01320648,100.2191,10.41.2.84,100.110.18.251,1,1,0.69,-29.45553,-40.16032,0
56:16.6,14,3DCCE5A0-AD64-4006-9610-DD3C35995850,my_iOS_device,1519498576,38.03575485,-78.49849194,156.7762,0,-1,6,5,-9999,1519498577,-10.13779449,16.38091278,-2.465026855,78.14224243,87.91789246,30,1403478.613,0.032546997,-0.105178833,-1.021774292,1403478.583,0.08364989,-0.112752382,0.051105529,1403478.606,-2.095983825,0.033611113,0.105215136,0.294865489,-0.315110207,0.073453568,0.01376123,-0.008321166,-0.055514932,XArbitraryCorrectedZVertical,-0.040791675,0.037173972,0.864658654,-0.499311745,0.03341895,-0.105021119,-0.993908286,-10.10991287,16.13475037,-2.431274414,2,1403477.449,automotive,2,56:15.4,null,0,0,0,0,null,1403475.804,0,0.01320648,100.2191,10.41.2.84,100.110.18.251,1,1,0.69,-29.45553,-42.09303,0
56:16.6,15,3DCCE5A0-AD64-4006-9610-DD3C35995850,my_iOS_device,1519498576,38.03575485,-78.49849194,156.7762,0,-1,6,5,-9999,1519498577,-10.4115181,16.15514374,-2.377624512,78.09745789,87.87310791,30,1403478.673,0.024093628,-0.099472046,-0.987380981,1403478.643,0.025146632,-0.106033759,-0.006284528,1403478.64,-2.094218084,0.022805048,0.113622593,0.102233946,-0.199595437,0.024965201,0.00261252,0.012166724,0.033973455,XArbitraryCorrectedZVertical,-0.038251106,0.043475319,0.864202499,-0.499793559,0.022656033,-0.113378272,-0.993293524,-10.41027451,16.10080719,-2.470092773,2,1403477.449,automotive,2,56:15.4,null,0,0,0,0,null,1403475.804,0,0.01320648,100.2191,10.41.2.84,100.110.18.251,1,1,0.69,-15.88604,-35.33842,0
56:16.7,16,3DCCE5A0-AD64-4006-9610-DD3C35995850,my_iOS_device,1519498576,38.03575485,-78.49849194,156.7762,0,-1,6,5,-9999,1519498577,-10.24295807,16.14817047,-2.512207031,78.9284668,88.70411682,30,1403478.732,0.001739502,-0.104705811,-1.008255005,1403478.703,-0.268420006,0.228770065,-0.461470157,1403478.71,-2.109379637,0.03028364,0.104662362,-0.274022192,0.241500497,-0.462101966,0.010490317,0.005350292,0.02054584,XArbitraryCorrectedZVertical,-0.038961612,0.038027242,0.868064463,-0.493449688,0.030113319,-0.104471386,-0.994071841,-10.24295807,16.14817047,-2.512207031,2,1403477.449,automotive,2,56:15.4,null,0,0,0,0,null,1403475.804,0,0.01320648,100.2191,10.41.2.84,100.110.18.251,1,1,0.69,-15.88604,-36.16266,0
56:16.7,17,3DCCE5A0-AD64-4006-9610-DD3C35995850,my_iOS_device,1519498576,38.03575485,-78.49849194,156.7762,0,-1,6,5,-9999,1519498577,-10.50357437,16.17942047,-2.281921387,79.31719971,89.09284973,30,1403478.792,0.025390625,-0.122573853,-0.984558106,1403478.762,0.184711527,-0.112060759,0.162724203,1403478.745,-2.117066711,0.037741561,0.09605253,-0.135427848,0.093348399,-0.033313088,-0.035422441,-0.010937139,-0.03736186,XArbitraryCorrectedZVertical,-0.039955467,0.032599878,0.870031834,-0.490283817,0.037558671,-0.095904902,-0.994681597,-10.34243011,16.07003784,-2.450378418,2,1403477.449,automotive,2,56:15.4,null,0,0,0,0,null,1403475.804,0,0.01320648,100.2191,10.41.2.84,100.110.18.251,1,1,0.69,-13.83084,-30.28344,0
56:16.8,18,3DCCE5A0-AD64-4006-9610-DD3C35995850,my_iOS_device,1519498576,38.03575485,-78.49849194,156.7762,0,-1,6,5,-9999,1519498577,-10.31809235,15.97517395,-2.509277344,78.61730957,88.39295959,30,1403478.852,0.036682129,-0.099319458,-0.981704712,1403478.822,0.065031198,-0.193665341,0.065242919,1403478.745,-2.117066711,0.037741561,0.09605253,-0.135427848,0.093348399,-0.033313088,-0.035422441,-0.010937139,-0.03736186,XArbitraryCorrectedZVertical,-0.039955467,0.032599878,0.870031834,-0.490283817,0.037558671,-0.095904902,-0.994681597,-10.34243011,16.07003784,-2.450378418,2,1403477.449,automotive,2,56:15.4,null,0,0,0,0,null,1403475.804,0,0.01320648,100.2191,10.41.2.84,100.110.18.251,1,1,0.69,-13.83084,-32.24148,0
56:16.9,19,3DCCE5A0-AD64-4006-9610-DD3C35995850,my_iOS_device,1519498576,38.03575485,-78.49849194,156.7762,0,-1,6,5,-9999,1519498577,-10.81442642,16.05964661,-2.219299316,78.8170929,88.59274292,30,1403478.911,0.015838623,-0.116043091,-1.004364014,1403478.882,-0.186423407,0.258042733,-0.089387937,1403478.745,-2.117066711,0.037741561,0.09605253,-0.135427848,0.093348399,-0.033313088,-0.035422441,-0.010937139,-0.03736186,XArbitraryCorrectedZVertical,-0.039955467,0.032599878,0.870031834,-0.490283817,0.037558671,-0.095904902,-0.994681597,-10.34243011,16.07003784,-2.450378418,2,1403477.449,automotive,2,56:15.4,null,0,0,0,0,null,1403475.804,0,0.01320648,100.2191,10.41.2.84,100.110.18.251,1,1,0.69,-13.83084,-35.22078,0
56:16.9,20,3DCCE5A0-AD64-4006-9610-DD3C35995850,my_iOS_device,1519498576,38.03575485,-78.49849194,156.7762,0,-1,6,5,-9999,1519498577,-10.70682144,16.44376373,-2.055053711,78.6089325,88.38458252,30,1403478.971,0.04510498,-0.08480835,-1.019104004,1403478.941,-0.224062395,0.121263578,0.070121298,1403478.745,-2.117066711,0.037741561,0.09605253,-0.135427848,0.093348399,-0.033313088,-0.035422441,-0.010937139,-0.03736186,XArbitraryCorrectedZVertical,-0.039955467,0.032599878,0.870031834,-0.490283817,0.037558671,-0.095904902,-0.994681597,-10.34243011,16.07003784,-2.450378418,2,1403477.449,automotive,2,56:15.4,null,0,0,0,0,null,1403475.804,0,0.01320648,100.2191,10.41.2.84,100.110.18.251,1,1,0.69,-13.83084,-36.7134,0
56:17.0,21,3DCCE5A0-AD64-4006-9610-DD3C35995850,my_iOS_device,1519498576,38.03575485,-78.49849194,156.7762,0,-1,6,5,-9999,1519498577,-10.78768921,16.75054932,-2.256958008,78.5258255,88.30147552,30,1403479.031,0.011474609,-0.040130615,-1,1403479.001,-0.013381852,-0.114458403,-0.000755805,1403478.745,-2.117066711,0.037741561,0.09605253,-0.135427848,0.093348399,-0.033313088,-0.035422441,-0.010937139,-0.03736186,XArbitraryCorrectedZVertical,-0.039955467,0.032599878,0.870031834,-0.490283817,0.037558671,-0.095904902,-0.994681597,-10.34243011,16.07003784,-2.450378418,2,1403477.449,automotive,2,56:15.4,null,0,0,0,0,null,1403475.804,0,0.01320648,100.2191,10.41.2.84,100.110.18.251,1,1,0.69,-13.83084,-39.72743,0
56:17.0,22,3DCCE5A0-AD64-4006-9610-DD3C35995850,my_iOS_device,1519498576,38.03575485,-78.49849194,156.7762,0,-1,6,5,-9999,1519498577,-10.27700043,16.27375793,-2.650512695,78.18080902,87.95645905,30,1403479.091,0.036483765,-0.09197998,-1.020751953,1403479.061,0.046035403,-0.039941824,0.19521104,1403478.745,-2.117066711,0.037741561,0.09605253,-0.135427848,0.093348399,-0.033313088,-0.035422441,-0.010937139,-0.03736186,XArbitraryCorrectedZVertical,-0.039955467,0.032599878,0.870031834,-0.490283817,0.037558671,-0.095904902,-0.994681597,-10.34243011,16.07003784,-2.450378418,2,1403477.449,automotive,2,56:15.4,null,0,0,0,0,null,1403475.804,0,0.01320648,100.2191,10.41.2.84,100.110.18.251,1,1,0.69,-13.83084,-34.02758,0
56:17.1,23,3DCCE5A0-AD64-4006-9610-DD3C35995850,my_iOS_device,1519498577,38.03575485,-78.49849194,158.2016,0,-1,6,5,-9999,1519498577,-10.06814957,16.29309082,-2.390197754,77.74029541,87.51594543,30,1403479.15,0.02041626,-0.109298706,-0.980560303,1403479.12,0.146153215,-0.155112356,0.13310559,1403478.745,-2.117066711,0.037741561,0.09605253,-0.135427848,0.093348399,-0.033313088,-0.035422441,-0.010937139,-0.03736186,XArbitraryCorrectedZVertical,-0.039955467,0.032599878,0.870031834,-0.490283817,0.037558671,-0.095904902,-0.994681597,-10.34243011,16.07003784,-2.450378418,2,1403477.449,automotive,2,56:15.4,null,0,0,0,0,null,1403475.804,0,0.01320648,100.2191,10.41.2.84,100.110.18.251,1,1,0.69,-13.83084,-36.1715,0
56:17.2,24,3DCCE5A0-AD64-4006-9610-DD3C35995850,my_iOS_device,1519498577,38.03575485,-78.49849194,158.2016,0,-1,6,5,-9999,1519498577,-10.02365494,16.32265472,-2.570495605,76.74520111,86.52085114,30,1403479.21,0.014434814,-0.102523804,-1.005508423,1403479.18,0.214945862,-0.010594321,0.208262659,1403478.745,-2.117066711,0.037741561,0.09605253,-0.135427848,0.093348399,-0.033313088,-0.035422441,-0.010937139,-0.03736186,XArbitraryCorrectedZVertical,-0.039955467,0.032599878,0.870031834,-0.490283817,0.037558671,-0.095904902,-0.994681597,-10.34243011,16.07003784,-2.450378418,2,1403477.449,automotive,2,56:15.4,null,0,0,0,0,null,1403476.749,0,-0.01321411,100.2195,10.41.2.84,100.110.18.251,1,1,0.69,-13.83084,-38.94762,0
56:17.2,25,3DCCE5A0-AD64-4006-9610-DD3C35995850,my_iOS_device,1519498577,38.03575485,-78.49849194,158.2016,0,-1,6,5,-9999,1519498577,-9.579166412,16.33584595,-2.83190918,76.07526398,85.850914,30,1403479.27,0.025314331,-0.134536743,-0.977371216,1403479.24,0.133736493,0.005007542,0.228873928,1403478.745,-2.117066711,0.037741561,0.09605253,-0.135427848,0.093348399,-0.033313088,-0.035422441,-0.010937139,-0.03736186,XArbitraryCorrectedZVertical,-0.039955467,0.032599878,0.870031834,-0.490283817,0.037558671,-0.095904902,-0.994681597,-10.34243011,16.07003784,-2.450378418,2,1403477.449,automotive,2,56:15.4,null,0,0,0,0,null,1403476.749,0,-0.01321411,100.2195,10.41.2.84,100.110.18.251,1,1,0.69,-13.83084,-40.78878,0
56:17.3,26,3DCCE5A0-AD64-4006-9610-DD3C35995850,my_iOS_device,1519498577,38.03575485,-78.49849194,158.2016,0,-1,6,5,-9999,1519498577,-9.542675018,16.1349411,-2.91192627,75.42746735,85.20311737,30,1403479.329,0.037277222,-0.089385986,-1.014190674,1403479.299,0.111592841,0.052647765,0.213925605,1403478.745,-2.117066711,0.037741561,0.09605253,-0.135427848,0.093348399,-0.033313088,-0.035422441,-0.010937139,-0.03736186,XArbitraryCorrectedZVertical,-0.039955467,0.032599878,0.870031834,-0.490283817,0.037558671,-0.095904902,-0.994681597,-10.34243011,16.07003784,-2.450378418,2,1403477.449,automotive,2,56:15.4,null,0,0,0,0,null,1403476.749,0,-0.01321411,100.2195,10.41.2.84,100.110.18.251,1,1,0.69,-13.83084,-35.31571,0
56:17.3,27,3DCCE5A0-AD64-4006-9610-DD3C35995850,my_iOS_device,1519498577,38.03575485,-78.49849194,158.2016,0,-1,6,5,-9999,1519498577,-9.547813416,16.62823486,-3.165100098,75.13680267,84.9124527,30,1403479.389,0.011627197,-0.116928101,-0.999298096,1403479.359,-0.190717488,-0.110249277,-0.003169428,1403478.745,-2.117066711,0.037741561,0.09605253,-0.135427848,0.093348399,-0.033313088,-0.035422441,-0.010937139,-0.03736186,XArbitraryCorrectedZVertical,-0.039955467,0.032599878,0.870031834,-0.490283817,0.037558671,-0.095904902,-0.994681597,-10.34243011,16.07003784,-2.450378418,2,1403477.449,automotive,2,56:15.4,null,0,0,0,0,null,1403476.749,0,-0.01321411,100.2195,10.41.2.84,100.110.18.251,1,1,0.69,-13.83084,-36.34443,0
56:17.4,28,3DCCE5A0-AD64-4006-9610-DD3C35995850,my_iOS_device,1519498577,38.03575485,-78.49849194,158.2016,0,-1,6,5,-9999,1519498577,-9.731830597,16.55413055,-2.999267578,75.1771698,84.95281982,30,1403479.449,0.038665771,-0.127059937,-0.990722656,1403479.419,0.000998153,0.19987743,-0.003645601,1403478.745,-2.117066711,0.037741561,0.09605253,-0.135427848,0.093348399,-0.033313088,-0.035422441,-0.010937139,-0.03736186,XArbitraryCorrectedZVertical,-0.039955467,0.032599878,0.870031834,-0.490283817,0.037558671,-0.095904902,-0.994681597,-10.34243011,16.07003784,-2.450378418,2,1403477.449,automotive,2,56:15.4,null,0,0,0,0,null,1403476.749,0,-0.01321411,100.2195,10.41.2.84,100.110.18.251,1,1,0.69,-13.83084,-38.97382,0
56:17.4,29,3DCCE5A0-AD64-4006-9610-DD3C35995850,my_iOS_device,1519498577,38.03575485,-78.49849194,158.2016,0,-1,6,5,-9999,1519498577,-9.507110596,16.73999786,-2.77746582,75.23480225,85.01045227,30,1403479.508,0.023590088,-0.127700806,-0.989273071,1403479.481,-0.134738907,-0.040352217,-0.021720209,1403478.745,-2.117066711,0.037741561,0.09605253,-0.135427848,0.093348399,-0.033313088,-0.035422441,-0.010937139,-0.03736186,XArbitraryCorrectedZVertical,-0.039955467,0.032599878,0.870031834,-0.490283817,0.037558671,-0.095904902,-0.994681597,-10.34243011,16.07003784,-2.450378418,2,1403477.449,automotive,2,56:15.4,null,0,0,0,0,null,1403476.749,0,-0.01321411,100.2195,10.41.2.84,100.110.18.251,1,1,0.69,-13.83084,-40.89297,0
56:17.5,30,3DCCE5A0-AD64-4006-9610-DD3C35995850,my_iOS_device,1519498577,38.03575485,-78.49849194,158.2016,0,-1,6,5,-9999,1519498577,-9.37845993,17.54644775,-2.35748291,75.23602295,85.01167297,30,1403479.568,0.035675049,-0.114990234,-1.005203247,1403479.551,-0.042721365,-0.012761335,-0.020059995,1403478.745,-2.117066711,0.037741561,0.09605253,-0.135427848,0.093348399,-0.033313088,-0.035422441,-0.010937139,-0.03736186,XArbitraryCorrectedZVertical,-0.039955467,0.032599878,0.870031834,-0.490283817,0.037558671,-0.095904902,-0.994681597,-10.34243011,16.07003784,-2.450378418,2,1403477.449,automotive,2,56:15.4,null,0,0,0,0,null,1403476.749,0,-0.01321411,100.2195,10.41.2.84,100.110.18.251,1,1,0.69,-13.83084,-42.80204,0
56:17.6,31,3DCCE5A0-AD64-4006-9610-DD3C35995850,my_iOS_device,1519498577,38.03575485,-78.49849194,158.2016,0,-1,6,5,-9999,1519498578,-9.452438354,16.47211456,-2.533935547,75.31175232,85.08740234,30,1403479.628,0.026000977,-0.106170654,-1.003417969,1403479.62,-0.062753663,0.017557688,-0.049923085,1403478.745,-2.117066711,0.037741561,0.09605253,-0.135427848,0.093348399,-0.033313088,-0.035422441,-0.010937139,-0.03736186,XArbitraryCorrectedZVertical,-0.039955467,0.032599878,0.870031834,-0.490283817,0.037558671,-0.095904902,-0.994681597,-10.34243011,16.07003784,-2.450378418,2,1403477.449,automotive,2,56:15.4,null,0,0,0,0,null,1403476.749,0,-0.01321411,100.2195,10.41.2.84,100.110.18.251,1,1,0.69,-13.83084,-45.68818,0
56:17.6,32,3DCCE5A0-AD64-4006-9610-DD3C35995850,my_iOS_device,1519498577,38.03575485,-78.49849194,158.2016,0,-1,6,5,-9999,1519498578,-9.468933105,16.46297455,-2.654907227,75.42848969,85.20413971,30,1403479.687,0.026107788,-0.119979858,-0.996032715,1403479.655,-0.049125735,-0.040872066,-0.056260343,1403478.745,-2.117066711,0.037741561,0.09605253,-0.135427848,0.093348399,-0.033313088,-0.035422441,-0.010937139,-0.03736186,XArbitraryCorrectedZVertical,-0.039955467,0.032599878,0.870031834,-0.490283817,0.037558671,-0.095904902,-0.994681597,-10.34243011,16.07003784,-2.450378418,2,1403477.449,automotive,2,56:15.4,null,0,0,0,0,null,1403476.749,0,-0.01321411,100.2195,10.41.2.84,100.110.18.251,1,1,0.69,-13.83084,-44.17591,0
56:17.7,33,3DCCE5A0-AD64-4006-9610-DD3C35995850,my_iOS_device,1519498577,38.03575485,-78.49849194,158.2016,0,-1,6,5,-9999,1519498578,-9.668849945,16.38463593,-2.566772461,75.51164246,85.28729248,30,1403479.747,0.027633667,-0.102264404,-0.994949341,1403479.725,-0.034028807,0.021775603,-0.013770673,1403478.745,-2.117066711,0.037741561,0.09605253,-0.135427848,0.093348399,-0.033313088,-0.035422441,-0.010937139,-0.03736186,XArbitraryCorrectedZVertical,-0.039955467,0.032599878,0.870031834,-0.490283817,0.037558671,-0.095904902,-0.994681597,-10.34243011,16.07003784,-2.450378418,2,1403477.449,automotive,2,56:15.4,null,0,0,0,0,null,1403476.749,0,-0.01321411,100.2195,10.41.2.84,100.110.18.251,1,1,0.69,-14.9454,-46.25207,0
56:17.8,34,3DCCE5A0-AD64-4006-9610-DD3C35995850,my_iOS_device,1519498577,38.03575485,-78.49849194,158.2016,0,-1,6,5,-9999,1519498578,-9.385097504,16.67546844,-2.915405273,75.57366943,85.34931946,30,1403479.807,0.027954102,-0.112716675,-1.009735107,1403479.794,-0.046974966,0.003491138,-0.005133243,1403478.745,-2.117066711,0.037741561,0.09605253,-0.135427848,0.093348399,-0.033313088,-0.035422441,-0.010937139,-0.03736186,XArbitraryCorrectedZVertical,-0.039955467,0.032599878,0.870031834,-0.490283817,0.037558671,-0.095904902,-0.994681597,-10.34243011,16.07003784,-2.450378418,2,1403477.449,automotive,2,56:15.4,null,0,0,0,0,null,1403476.749,0,-0.01321411,100.2195,10.41.2.84,100.110.18.251,1,1,0.69,-16.61723,-47.61632,0
56:17.8,35,3DCCE5A0-AD64-4006-9610-DD3C35995850,my_iOS_device,1519498577,38.03575485,-78.49849194,158.2016,0,-1,6,5,-9999,1519498578,-9.232845306,16.67036438,-2.72265625,75.46017456,85.23582458,30,1403479.867,0.029998779,-0.101531982,-1.009719849,1403479.86,-0.008775648,-0.015021826,0.038498124,1403478.745,-2.117066711,0.037741561,0.09605253,-0.135427848,0.093348399,-0.033313088,-0.035422441,-0.010937139,-0.03736186,XArbitraryCorrectedZVertical,-0.039955467,0.032599878,0.870031834,-0.490283817,0.037558671,-0.095904902,-0.994681597,-10.34243011,16.07003784,-2.450378418,2,1403477.449,automotive,2,56:15.4,null,0,0,0,0,null,1403476.749,0,-0.01321411,100.2195,10.41.2.84,100.110.18.251,1,1,0.69,-17.73179,-49.53691,0
56:17.9,36,3DCCE5A0-AD64-4006-9610-DD3C35995850,my_iOS_device,1519498577,38.03575485,-78.49849194,158.2016,0,-1,6,5,-9999,1519498578,-9.513767242,16.70595551,-2.708679199,75.39118195,85.16683197,30,1403479.926,0.03352356,-0.104919434,-0.986160278,1403479.92,-0.008549812,0.006542322,0.008563128,1403478.745,-2.117066711,0.037741561,0.09605253,-0.135427848,0.093348399,-0.033313088,-0.035422441,-0.010937139,-0.03736186,XArbitraryCorrectedZVertical,-0.039955467,0.032599878,0.870031834,-0.490283817,0.037558671,-0.095904902,-0.994681597,-10.34243011,16.07003784,-2.450378418,2,1403477.449,automotive,2,56:15.4,null,0,0,0,0,null,1403476.749,0,-0.01321411,100.2195,10.41.2.84,100.110.18.251,1,1,0.69,-19.40363,-50.48464,0
56:17.9,37,3DCCE5A0-AD64-4006-9610-DD3C35995850,my_iOS_device,1519498577,38.03575485,-78.49849194,158.2016,0,-1,6,5,-9999,1519498578,-9.365779877,16.65353394,-2.66217041,75.3421936,85.11784363,25,1403479.986,0.032531738,-0.114730835,-0.98210144,1403479.98,-0.001200553,-0.004274374,0.02776665,1403478.745,-2.117066711,0.037741561,0.09605253,-0.135427848,0.093348399,-0.033313088,-0.035422441,-0.010937139,-0.03736186,XArbitraryCorrectedZVertical,-0.039955467,0.032599878,0.870031834,-0.490283817,0.037558671,-0.095904902,-0.994681597,-10.34243011,16.07003784,-2.450378418,2,1403477.449,automotive,2,56:15.4,null,0,0,0,0,null,1403476.749,0,-0.01321411,100.2195,10.41.2.84,100.110.18.251,1,1,0.69,-20.51819,-51.79193,0
56:18.0,38,3DCCE5A0-AD64-4006-9610-DD3C35995850,my_iOS_device,1519498577,38.03575485,-78.49849194,158.2016,0,-1,6,5,-9999,1519498578,-9.19940567,16.60926819,-2.715820313,75.26564789,85.04129791,25,1403480.046,0.028961182,-0.115478516,-1.011566162,1403480.039,-0.026992736,-0.043045738,0.017294035,1403478.745,-2.117066711,0.037741561,0.09605253,-0.135427848,0.093348399,-0.033313088,-0.035422441,-0.010937139,-0.03736186,XArbitraryCorrectedZVertical,-0.039955467,0.032599878,0.870031834,-0.490283817,0.037558671,-0.095904902,-0.994681597,-10.34243011,16.07003784,-2.450378418,2,1403477.449,automotive,2,56:15.4,null,0,0,0,0,null,1403476.749,0,-0.01321411,100.2195,10.41.2.84,100.110.18.251,1,1,0.69,-22.7473,-47.43815,0
56:18.0,39,3DCCE5A0-AD64-4006-9610-DD3C35995850,my_iOS_device,1519498577,38.03575485,-78.49849194,158.2016,0,-1,6,5,-9999,1519498578,-9.266075134,16.48855591,-2.582702637,75.18105316,84.95670319,25,1403480.105,0.026092529,-0.104217529,-0.996307373,1403480.099,0.004361193,0.023757527,0.007399859,1403478.745,-2.117066711,0.037741561,0.09605253,-0.135427848,0.093348399,-0.033313088,-0.035422441,-0.010937139,-0.03736186,XArbitraryCorrectedZVertical,-0.039955467,0.032599878,0.870031834,-0.490283817,0.037558671,-0.095904902,-0.994681597,-10.34243011,16.07003784,-2.450378418,2,1403477.449,automotive,2,56:15.4,null,0,0,0,0,null,1403476.749,0,-0.01321411,100.2195,10.41.2.84,100.110.18.251,1,1,0.69,-23.30458,-47.98033,0
56:18.1,40,3DCCE5A0-AD64-4006-9610-DD3C35995850,my_iOS_device,1519498578,38.03575485,-78.49849194,159.9192,0,-1,6,5,-9999,1519498578,-9.108417511,16.48207092,-2.587341309,75.15036011,84.92601013,25,1403480.165,0.028915405,-0.106002808,-0.986724854,1403480.159,-0.032244489,-0.046297724,-0.00935968,1403478.745,-2.117066711,0.037741561,0.09605253,-0.135427848,0.093348399,-0.033313088,-0.035422441,-0.010937139,-0.03736186,XArbitraryCorrectedZVertical,-0.039955467,0.032599878,0.870031834,-0.490283817,0.037558671,-0.095904902,-0.994681597,-10.34243011,16.07003784,-2.450378418,2,1403477.449,automotive,2,56:15.4,null,0,0,0,0,null,1403477.694,0,-0.01321411,100.2195,10.41.2.84,100.110.18.251,1,1,0.69,-24.97642,-49.02099,0
56:18.2,41,3DCCE5A0-AD64-4006-9610-DD3C35995850,my_iOS_device,1519498578,38.03575485,-78.49849194,159.9192,0,-1,6,5,-9999,1519498578,-9.245456696,16.26878357,-2.783569336,75.14107513,84.91672516,25,1403480.225,0.026443481,-0.107849121,-0.998764038,1403480.218,-0.009698167,-0.013988254,0.003276487,1403480.197,-2.073733691,0.026758694,0.104893131,-0.035919826,-0.060559232,0.008194765,0.001940753,-0.000783116,-0.007668078,XArbitraryCorrectedZVertical,0.038177423,-0.038322553,-0.859196425,0.508778274,0.026608447,-0.104700886,-0.994147718,-9.245456696,16.26878357,-2.783569336,2,1403477.449,automotive,2,56:15.4,null,0,0,0,0,null,1403477.694,0,-0.01321411,100.2195,10.41.2.84,100.110.18.251,1,1,0.69,-26.09097,-49.45973,0
56:18.2,42,3DCCE5A0-AD64-4006-9610-DD3C35995850,my_iOS_device,1519498578,38.03575485,-78.49849194,159.9192,0,-1,6,5,-9999,1519498578,-9.29574585,16.44727325,-2.753662109,75.11260986,84.88825989,25,1403480.284,0.026092529,-0.112533569,-0.994720459,1403480.278,0.014895593,-0.007635549,0.006354036,1403480.267,-2.07316216,0.026770139,0.104468329,0.009358644,0.015897151,0.001417572,-0.002237465,0.00341782,-0.023081124,XArbitraryCorrectedZVertical,0.038085427,-0.038126115,-0.859061778,0.509027183,0.026621012,-0.104278408,-0.994191825,-9.29574585,16.44727325,-2.753662109,2,1403477.449,automotive,2,56:15.4,null,0,0,0,0,null,1403477.694,0,-0.01321411,100.2195,10.41.2.84,100.110.18.251,1,1,0.69,-27.76281,-51.1017,0
56:18.3,43,3DCCE5A0-AD64-4006-9610-DD3C35995850,my_iOS_device,1519498578,38.03575485,-78.49849194,159.9192,0,-1,6,5,-9999,1519498578,-9.380725861,16.42880249,-2.72265625,75.08972931,84.86537933,25,1403480.344,0.029891968,-0.113342285,-0.998657227,1403480.338,-0.008749017,-0.035598208,0.006521815,1403480.337,-2.072660438,0.026743622,0.104969594,0.004802387,-0.035930175,0.007953538,-0.002377551,-0.006505415,0.000701427,XArbitraryCorrectedZVertical,0.038210932,-0.038338762,-0.858921588,0.509238422,0.026593247,-0.104776926,-0.994140148,-9.278007507,16.66175079,-2.595153809,2,1403477.449,automotive,2,56:15.4,null,0,0,0,0,null,1403477.694,0,-0.01321411,100.2195,10.41.2.84,100.110.18.251,1,1,0.69,-29.43465,-46.13751,0
56:18.3,44,3DCCE5A0-AD64-4006-9610-DD3C35995850,my_iOS_device,1519498578,38.03575485,-78.49849194,159.9192,0,-1,6,5,-9999,1519498578,-9.352359772,16.34292603,-2.871704102,75.0748291,84.85047913,25,1403480.404,0.027420044,-0.102554321,-0.992095947,1403480.398,-0.000893757,0.038908251,0.004188087,1403480.371,-2.072644748,0.024743831,0.107830692,-0.03136785,-0.010894207,-0.000475957,-0.00082441,-0.003950417,-0.002435088,XArbitraryCorrectedZVertical,0.038079195,-0.040077314,-0.858880937,0.509183109,0.024597606,-0.107621849,-0.993887544,-9.218730927,16.60515594,-2.79107666,2,1403477.449,automotive,2,56:15.4,null,0,0,0,0,null,1403477.694,0,-0.01321411,100.2195,10.41.2.84,100.110.18.251,1,1,0.69,-30.54921,-47.47313,0
56:18.4,45,3DCCE5A0-AD64-4006-9610-DD3C35995850,my_iOS_device,1519498578,38.03575485,-78.49849194,159.9192,0,-1,6,5,-9999,1519498578,-9.114078522,16.30387878,-2.50592041,75.06091309,84.83656311,25,1403480.463,0.025863647,-0.097824097,-1.009399414,1403480.457,-0.000991761,0.008636631,-0.008553541,1403480.441,-2.072338823,0.027217569,0.104320646,-0.014317006,-0.013136242,0.00799179,0.003817528,-0.00379388,-0.013754666,XArbitraryCorrectedZVertical,0.038255733,-0.037933003,-0.858847439,0.509390414,0.027066259,-0.104131535,-0.994195163,-8.986129761,16.34641266,-2.723449707,2,1403477.449,automotive,2,56:15.4,null,0,0,0,0,null,1403477.694,0,-0.01321411,100.2195,10.41.2.84,100.110.18.251,1,1,0.69,-32.22104,-49.76614,0
56:18.5,46,3DCCE5A0-AD64-4006-9610-DD3C35995850,my_iOS_device,1519498578,38.03575485,-78.49849194,159.9192,0,-1,6,5,-9999,1519498578,-9.2068367,16.33276367,-2.699035645,75.05509186,84.83074188,25,1403480.523,0.020599365,-0.107818604,-0.996047974,1403480.517,-0.009545835,0.006521016,-0.009577793,1403480.511,-2.072086453,0.027737799,0.106797303,0.01371124,0.030998401,0.000297283,0.000423651,0.003658608,0.001015425,XArbitraryCorrectedZVertical,0.039113268,-0.038859967,-0.858708262,0.509490192,0.027576229,-0.106594406,-0.993920088,-9.386844635,16.34277344,-2.754638672,2,1403477.449,automotive,2,56:15.4,null,0,0,0,0,null,1403477.694,0,-0.01321411,100.2195,10.41.2.84,100.110.18.251,1,1,0.69,-33.3356,-51.51172,0
56:18.5,47,3DCCE5A0-AD64-4006-9610-DD3C35995850,my_iOS_device,1519498578,38.03575485,-78.49849194,159.9192,0,-1,6,5,-9999,1519498578,-8.97120285,16.71352386,-2.679992676,75.04975891,84.82540894,25,1403480.583,0.031555176,-0.112533569,-0.998443604,1403480.577,-0.016040752,-0.009648899,-0.008445683,1403480.58,-2.07222628,0.027869066,0.106528368,-0.00460375,-0.004565452,-0.005948633,0.003618795,-0.00559622,-0.005368233,XArbitraryCorrectedZVertical,0.039098583,-0.03871369,-0.858748436,0.50943476,0.027707495,-0.106326997,-0.993945122,-9.271003723,16.33946991,-2.847045898,2,1403477.449,automotive,2,56:15.4,null,0,0,0,0,null,1403477.694,0,-0.01321411,100.2195,10.41.2.84,100.110.18.251,1,1,0.69,-35.00744,-45.16729,0
56:18.6,48,3DCCE5A0-AD64-4006-9610-DD3C35995850,my_iOS_device,1519498578,38.03575485,-78.49849194,159.9192,0,-1,6,5,-9999,1519498579,-9.322780609,16.49765015,-2.80859375,75.06064606,84.83629608,25,1403480.643,0.030029297,-0.104904175,-0.981002808,1403480.636,0.007767908,0.05938503,0.000902013,1403480.615,-2.072247312,0.027341405,0.106400251,0.016758544,-0.00684469,-0.007108259,0.003471505,0.00132595,0.00071758,XArbitraryCorrectedZVertical,0.038839057,-0.038793445,-0.85876745,0.509416461,0.027183397,-0.106199607,-0.993973196,-9.188076019,16.5167923,-2.798034668,2,1403477.449,automotive,2,56:15.4,null,0,0,0,0,null,1403477.694,0,-0.01321411,100.2195,10.41.2.84,100.110.18.251,1,1,0.69,-36.12199,-46.70396,0
56:18.6,49,3DCCE5A0-AD64-4006-9610-DD3C35995850,my_iOS_device,1519498578,38.03575485,-78.49849194,159.9192,0,-1,6,5,-9999,1519498579,-9.121326447,16.43898773,-2.861450195,75.07437134,84.85002136,25,1403480.702,0.020675659,-0.114028931,-1.013702393,1403480.696,-0.033253295,-0.037654701,-0.013643641,1403480.685,-2.072285849,0.030247415,0.106048483,-0.031198889,0.015021704,-0.011210717,0.002458837,-0.001205847,-0.00595063,XArbitraryCorrectedZVertical,0.039996713,-0.037902813,-0.858729303,0.509458184,0.030072903,-0.105849817,-0.9939273,-9.293434143,16.44306183,-2.826782227,2,1403477.449,automotive,2,56:15.4,null,0,0,0,0,null,1403477.694,0,-0.01321411,100.2195,10.41.2.84,100.110.18.251,1,1,0.69,-37.79383,-48.26484,0
56:18.7,50,3DCCE5A0-AD64-4006-9610-DD3C35995850,my_iOS_device,1519498578,38.03575485,-78.49849194,159.9192,0,-1,6,5,-9999,1519498579,-9.204235077,16.35161591,-2.684570313,75.09050751,84.86615753,25,1403480.762,0.029373169,-0.115478516,-0.986373901,1403480.756,-0.022495189,-0.006350041,0.006519418,1403480.754,-2.072737691,0.027296058,0.105430802,-0.006818833,-0.011019377,0.005818157,0.001881097,-0.01244019,0.003674626,XArbitraryCorrectedZVertical,0.038563848,-0.03839783,-0.858918607,0.509212256,0.027141122,-0.105235592,-0.994076848,-9.204235077,16.35161591,-2.684570313,2,1403477.449,automotive,2,56:15.4,null,0,0,0,0,null,1403477.694,0,-0.01321411,100.2195,10.41.2.84,100.110.18.251,1,1,0.69,-39.46567,-50.27425,0
56:18.8,51,3DCCE5A0-AD64-4006-9610-DD3C35995850,my_iOS_device,1519498578,38.03575485,-78.49849194,159.9192,0,-1,6,5,-9999,1519498579,-9.357036591,16.26765442,-2.708129883,75.0848999,84.86054993,25,1403480.822,0.026870728,-0.093551636,-1.002929688,1403480.815,0.017153953,0.003131611,-0.010757839,1403480.789,-2.07268982,0.027559608,0.104982502,-0.010787314,0.039764486,-0.008152274,0.001419447,0.003837615,-0.001504004,XArbitraryCorrectedZVertical,0.038564082,-0.038137119,-0.858913004,0.509241104,0.027404405,-0.104789764,-0.994116724,-9.357036591,16.26765442,-2.708129883,2,1403477.449,automotive,2,56:15.4,null,0,0,0,0,null,1403477.694,0,-0.01321411,100.2195,10.41.2.84,100.110.18.251,1,1,0.69,-40.58023,-51.23431,0
56:18.8,52,3DCCE5A0-AD64-4006-9610-DD3C35995850,my_iOS_device,1519498578,38.03575485,-78.49849194,159.9192,0,-1,6,5,-9999,1519498579,-9.367355347,16.41340637,-2.989501953,75.09740448,84.8730545,25,1403480.881,0.020767212,-0.097625732,-1.001525879,1403480.875,-0.011920309,-0.039923182,-0.007330351,1403480.859,-2.072821488,0.028827167,0.105922602,-0.011040078,-0.000190944,0.005811886,0.008890245,-0.014026329,-0.001607895,XArbitraryCorrectedZVertical,0.039344683,-0.038221024,-0.858897209,0.509202004,0.028661633,-0.105724648,-0.993982315,-9.367355347,16.41340637,-2.989501953,2,1403477.449,automotive,2,56:15.4,null,0,0,0,0,null,1403477.694,0,-0.01321411,100.2195,10.41.2.84,100.110.18.251,1,1,0.69,-42.25206,-51.93378,0
56:18.9,53,3DCCE5A0-AD64-4006-9610-DD3C35995850,my_iOS_device,1519498578,38.03575485,-78.49849194,159.9192,0,-1,6,5,-9999,1519498579,-9.554405212,16.35601807,-2.823913574,75.10530853,84.88095856,25,1403480.941,0.027008057,-0.112640381,-0.995147705,1403480.935,-0.009652361,-0.015087873,-0.009529856,1403480.929,-2.073272735,0.029303852,0.105272643,-0.001394596,-0.007831069,-0.011296254,0.002005737,-0.002023131,-0.014019668,XArbitraryCorrectedZVertical,0.039375808,-0.037829161,-0.859019876,0.509021998,0.029137453,-0.10507831,-0.994036973,-9.296051025,16.34527588,-2.74407959,2,1403477.449,automotive,2,56:15.4,null,0,0,0,0,null,1403477.694,0,-0.01321411,100.2195,10.41.2.84,100.110.18.251,1,1,0.69,-43.36662,-48.06736,0
56:18.9,54,3DCCE5A0-AD64-4006-9610-DD3C35995850,my_iOS_device,1519498578,38.03575485,-78.49849194,159.9192,0,-1,6,5,-9999,1519498579,-9.316017151,16.24718475,-2.845947266,75.11466217,84.89031219,25,1403481.001,0.03062439,-0.09677124,-1.007629395,1403480.994,0.051285026,0.002966495,0.004032292,1403480.998,-2.073222203,0.029165244,0.104040304,0.044539724,0.007074199,0.009814594,0.001117423,0.008042775,-0.014741421,XArbitraryCorrectedZVertical,0.039004382,-0.03733366,-0.859042049,0.509049773,0.029003426,-0.103852712,-0.994169712,-9.316017151,16.24718475,-2.845947266,2,1403480.951,automotive,0,56:18.9,null,0,0,0,0,null,1403477.694,0,-0.01321411,100.2195,10.41.2.84,100.110.18.251,1,1,0.69,-45.03846,-48.6161,0
56:19.0,55,3DCCE5A0-AD64-4006-9610-DD3C35995850,my_iOS_device,1519498578,38.03575485,-78.49849194,159.9192,0,-1,6,5,-9999,1519498579,-9.346897125,16.35492706,-2.714599609,75.14200592,84.91765594,25,1403481.06,0.024871826,-0.107452393,-1.011566162,1403481.054,-0.12947224,-0.060919544,-0.028103007,1403481.033,-2.073530164,0.029500593,0.107191613,-0.05071076,-0.046466477,-0.017395642,0.004578013,-0.000954211,-0.003135622,XArbitraryCorrectedZVertical,0.039942443,-0.038609181,-0.859030485,0.508901417,0.02932702,-0.106986456,-0.993827879,-9.489906311,16.25829315,-2.683532715,2,1403480.951,automotive,0,56:18.9,null,0,0,0,0,null,1403478.64,0,-0.02642822,100.2196,10.41.2.84,100.110.18.251,1,1,0.69,-38.57784,-44.36683,0
56:19.1,56,3DCCE5A0-AD64-4006-9610-DD3C35995850,my_iOS_device,1519498578,38.03575485,-78.49849194,159.9192,0,-1,6,5,-9999,1519498579,-9.60572052,16.61938477,-2.673217773,75.1835556,84.95920563,25,1403481.12,0.031616211,-0.113311768,-0.99319458,1403481.114,-0.004155597,0.024875256,0.001031442,1403481.103,-2.074498591,0.02764796,0.103134851,0.038332459,0.028682346,-0.014756968,5.98E-05,0.009690389,0.001615107,XArbitraryCorrectedZVertical,0.038098942,-0.037354901,-0.859419406,0.508479416,0.027497545,-0.102952108,-0.994306147,-9.60572052,16.61938477,-2.673217773,2,1403480.951,automotive,0,56:18.9,null,0,0,0,0,null,1403478.64,0,-0.02642822,100.2196,10.41.2.84,100.110.18.251,1,1,0.69,-38.57784,-44.70038,0
56:19.1,57,3DCCE5A0-AD64-4006-9610-DD3C35995850,my_iOS_device,1519498579,38.03575485,-78.49849194,161.8275,0,-1,6,5,-9999,1519498579,-9.558605194,16.49693298,-2.656005859,75.17073822,84.94638824,25,1403481.18,0.02571106,-0.095077515,-0.997924805,1403481.174,-0.014064686,-0.038826226,-0.004120975,1403481.172,-2.073989291,0.02652672,0.102657275,-0.011234738,-0.044497225,-0.000498327,-0.000489809,0.000288948,-0.005919755,XArbitraryCorrectedZVertical,0.037505526,-0.037425015,-0.859323323,0.508680821,0.026383972,-0.102477059,-0.994385421,-9.386501312,16.54811096,-2.534667969,2,1403480.951,automotive,0,56:18.9,null,0,0,0,0,null,1403478.64,0,-0.02642822,100.2196,10.41.2.84,100.110.18.251,1,1,0.69,-38.57784,-46.56182,0
56:19.2,58,3DCCE5A0-AD64-4006-9610-DD3C35995850,my_iOS_device,1519498579,38.03575485,-78.49849194,161.8275,0,-1,6,5,-9999,1519498579,-9.354679108,16.34784698,-2.639526367,75.16649628,84.9421463,25,1403481.239,0.03364563,-0.108108521,-1.009414673,1403481.233,-0.018232001,-0.017193901,-0.004149738,1403481.207,-2.074276775,0.02645666,0.10217094,-0.031308584,-0.008750414,-0.013295082,-0.001855779,-0.000316903,-0.00267911,XArbitraryCorrectedZVertical,0.037346661,-0.037239082,-0.859410048,0.508559406,0.02631562,-0.101993278,-0.994436979,-9.354679108,16.34784698,-2.639526367,2,1403480.951,automotive,0,56:18.9,null,0,0,0,0,null,1403478.64,0,-0.02642822,100.2196,10.41.2.84,100.110.18.251,1,1,0.69,-38.57784,-47.26601,0
56:19.2,59,3DCCE5A0-AD64-4006-9610-DD3C35995850,my_iOS_device,1519498579,38.03575485,-78.49849194,161.8275,0,-1,6,5,-9999,1519498579,-9.466918945,16.53049469,-2.744445801,75.18045044,84.95610046,25,1403481.299,0.021774292,-0.10067749,-0.999816895,1403481.293,-0.024781247,-0.040920535,0.00126873,1403481.277,-2.074509383,0.024639538,0.100873312,-0.018648122,-0.031492468,-0.000489255,0.000619419,0.00283245,0.004563332,XArbitraryCorrectedZVertical,0.036232255,-0.037147287,-0.859535217,0.508435428,0.024511805,-0.100702331,-0.994614601,-9.463214874,16.34459686,-2.632446289,2,1403480.951,automotive,0,56:18.9,null,0,0,0,0,null,1403478.64,0,-0.02642822,100.2196,10.41.2.84,100.110.18.251,1,1,0.69,-120,-120,0
56:19.3,60,3DCCE5A0-AD64-4006-9610-DD3C35995850,my_iOS_device,1519498579,38.03575485,-78.49849194,161.8275,0,-1,6,5,-9999,1519498579,-9.45658493,16.64634705,-2.49621582,75.21061707,84.98626709,25,1403481.359,0.028747559,-0.103240967,-1.005004883,1403481.353,-0.050367833,-0.035388884,-0.00609997,1403481.346,-2.074959731,0.024352113,0.100277598,-0.027000211,0.004202303,-0.005870266,0.000720736,-0.008929685,-0.00647825,XArbitraryCorrectedZVertical,0.035949279,-0.036972251,-0.859669566,0.508240879,0.024227383,-0.100109622,-0.994681418,-9.45658493,16.64634705,-2.49621582,2,1403480.951,automotive,0,56:18.9,null,0,0,0,0,null,1403478.64,0,-0.02642822,100.2196,10.41.2.84,100.110.18.251,1,1,0.69,-120,-120,0
56:19.4,61,3DCCE5A0-AD64-4006-9610-DD3C35995850,my_iOS_device,1519498579,38.03575485,-78.49849194,161.8275,0,-1,6,5,-9999,1519498579,-9.238128662,16.50914764,-2.653625488,75.22029877,84.99594879,25,1403481.419,0.021133423,-0.090118408,-0.998474121,1403481.412,-0.039694949,-0.051679706,-0.023190274,1403481.416,-2.075310207,0.021885328,0.097794913,-0.033616092,-0.047642563,-0.018536514,0.000468299,0.006788269,-0.005382657,XArbitraryCorrectedZVertical,0.034252841,-0.036537159,-0.859862149,0.508063912,0.021779019,-0.097639106,-0.994983554,-9.166400909,16.58795929,-2.559326172,2,1403480.951,automotive,0,56:18.9,null,0,0,0,0,null,1403478.64,0,-0.02642822,100.2196,10.41.2.84,100.110.18.251,1,1,0.69,-120,-120,0
56:19.4,62,3DCCE5A0-AD64-4006-9610-DD3C35995850,my_iOS_device,1519498579,38.03575485,-78.49849194,161.8275,0,-1,6,5,-9999,1519498579,-9.168235779,16.72325134,-2.506469727,75.29233551,85.06798553,25,1403481.478,0.024337769,-0.101196289,-1.011322021,1403481.472,-0.029796512,0.009860887,-0.018033063,1403481.451,-2.076620383,0.021955189,0.096152556,-0.058848422,0.014042949,-0.045241643,-0.005067352,0.001216866,-0.007025719,XArbitraryCorrectedZVertical,0.033842944,-0.035835028,-0.860232472,0.507514298,0.02185202,-0.096004464,-0.995141029,-9.360530853,16.8328476,-2.307067871,2,1403480.951,automotive,0,56:18.9,null,0,0,0,0,null,1403478.64,0,-0.02642822,100.2196,10.41.2.84,100.110.18.251,1,1,0.69,-120,-120,0
56:19.5,63,3DCCE5A0-AD64-4006-9610-DD3C35995850,my_iOS_device,1519498579,38.03575485,-78.49849194,161.8275,0,-1,6,5,-9999,1519498579,-9.288375854,17.00893402,-2.287536621,75.35175323,85.12740326,25,1403481.538,0.023773193,-0.087844849,-0.987640381,1403481.532,-0.036042157,0.039060051,-0.02340599,1403481.52,-2.077694291,0.022420904,0.094983687,-0.005492561,0.0246001,-0.015620708,0.000188746,0.005638048,0.001254201,XArbitraryCorrectedZVertical,0.033728264,-0.035231899,-0.860524297,0.507069051,0.02231797,-0.094840929,-0.995242238,-9.313663483,17.47903442,-2.354797363,2,1403480.951,automotive,0,56:18.9,null,0,0,0,0,null,1403478.64,0,-0.02642822,100.2196,10.41.2.84,100.110.18.251,1,1,0.69,-120,-120,0
56:19.5,64,3DCCE5A0-AD64-4006-9610-DD3C35995850,my_iOS_device,1519498579,38.03575485,-78.49849194,161.8275,0,-1,6,5,-9999,1519498580,-9.004009247,16.9876709,-2.292236328,75.37244415,85.14809418,25,1403481.598,0.027160645,-0.094192505,-1.007019043,1403481.591,-0.026921363,-0.026835875,0.019392873,1403481.59,-2.077924495,0.024668637,0.093216923,-0.017532179,-0.002289038,0.022918163,0.00513456,-0.004009694,-0.011938214,XArbitraryCorrectedZVertical,0.034244362,-0.03390526,-0.86058557,0.50702107,0.024559045,-0.093081981,-0.995355487,-9.004009247,16.9876709,-2.292236328,2,1403480.951,automotive,0,56:18.9,null,0,0,0,0,null,1403478.64,0,-0.02642822,100.2196,10.41.2.84,100.110.18.251,1,1,0.69,-120,-120,0
56:19.6,65,3DCCE5A0-AD64-4006-9610-DD3C35995850,my_iOS_device,1519498579,38.03575485,-78.49849194,161.8275,0,-1,6,5,-9999,1519498580,-9.068634033,16.78366852,-2.088195801,75.3184433,85.09409332,25,1403481.657,0.02355957,-0.104293823,-0.990097046,1403481.651,-0.055126369,-0.129356126,-0.000535295,1403481.625,-2.076862399,0.021841471,0.092711367,-0.002481867,-0.179530799,0.048855003,-0.00346591,-0.005749032,-0.0249331,XArbitraryCorrectedZVertical,0.032918155,-0.034386795,-0.860375226,0.507432997,0.021745941,-0.092578612,-0.995467901,-9.254283905,17.06161499,-2.513000488,2,1403480.951,automotive,0,56:18.9,null,0,0,0,0,null,1403478.64,0,-0.02642822,100.2196,10.41.2.84,100.110.18.251,1,1,0.69,-120,-120,0
56:19.7,66,3DCCE5A0-AD64-4006-9610-DD3C35995850,my_iOS_device,1519498579,38.03575485,-78.49849194,161.8275,0,-1,6,5,-9999,1519498580,-9.137088776,17.09748077,-2.311157227,75.27607727,85.05172729,25,1403481.717,0.012130737,-0.085510254,-1.013153076,1403481.711,0.000609331,-0.076687055,0.020445887,1403481.695,-2.07615138,0.014198908,0.09048733,-0.01251372,-0.067143403,0.0241054,-0.008174155,-0.00341662,-0.016307056,XArbitraryCorrectedZVertical,0.029079245,-0.035357971,-0.860362172,0.507622778,0.014140342,-0.090363897,-0.995808423,-9.137088776,17.09748077,-2.311157227,2,1403480.951,automotive,0,56:18.9,null,0,0,0,0,null,1403478.64,0,-0.02642822,100.2196,10.41.2.84,100.110.18.251,1,1,0.69,-120,-120,0
56:19.7,67,3DCCE5A0-AD64-4006-9610-DD3C35995850,my_iOS_device,1519498579,38.03575485,-78.49849194,161.8275,0,-1,6,5,-9999,1519498580,-8.955619812,17.04871368,-2.056091309,75.2167511,84.99240112,25,1403481.777,0.005081177,-0.093399048,-0.998184204,1403481.77,-0.015461248,-0.086324769,0.019471969,1403481.764,-2.074753164,0.009024743,0.090894006,0.002387971,-0.081275754,0.020866603,-0.001068056,-0.001455225,-0.008486807,XArbitraryCorrectedZVertical,0.026982203,-0.036827255,-0.860071123,0.508127213,0.008987366,-0.090768903,-0.99583143,-9.287315369,16.84745789,-2.067077637,2,1403480.951,automotive,0,56:18.9,null,0,0,0,0,null,1403478.64,0,-0.02642822,100.2196,10.41.2.84,100.110.18.251,1,1,0.69,-120,-120,0
56:19.8,68,3DCCE5A0-AD64-4006-9610-DD3C35995850,my_iOS_device,1519498579,38.03575485,-78.49849194,161.8275,0,-1,6,5,-9999,1519498580,-9.126708984,16.58313751,-2.324462891,75.1471405,84.92279053,25,1403481.836,0.011001587,-0.092254639,-0.993911743,1403481.83,-0.005513809,-0.013978134,0.025672607,1403481.834,-2.072600476,0.006688663,0.090375918,0.001664106,-0.004545983,0.029241534,0.003501039,-0.002779901,0.002824068,XArbitraryCorrectedZVertical,0.025886061,-0.03717006,-0.859565198,0.509014487,0.006661316,-0.090252943,-0.995896578,-9.153911591,16.68352509,-2.070861816,2,1403480.951,automotive,0,56:18.9,null,0,0,0,0,null,1403478.64,0,-0.02642822,100.2196,10.41.2.84,100.110.18.251,1,1,0.69,-120,-120,0
56:19.8,69,3DCCE5A0-AD64-4006-9610-DD3C35995850,my_iOS_device,1519498579,38.03575485,-78.49849194,161.8275,0,-1,6,5,-9999,1519498580,-9.112651825,16.64169312,-2.190246582,74.9628067,84.73845673,25,1403481.896,0.004196167,-0.08934021,-1.012451172,1403481.89,-0.001492435,-0.066946543,0.023636087,1403481.869,-2.071513942,0.005941973,0.090627023,0.009035736,-0.022948161,0.033518307,0.001208298,0.001254365,-0.005708337,XArbitraryCorrectedZVertical,0.025649372,-0.03745411,-0.859293044,0.5094648,0.005917554,-0.090503015,-0.995878577,-9.227649689,16.6491394,-2.247741699,2,1403480.951,automotive,0,56:18.9,null,0,0,0,0,null,1403478.64,0,-0.02642822,100.2196,10.41.2.84,100.110.18.251,1,1,0.69,-120,-120,0
56:19.9,70,3DCCE5A0-AD64-4006-9610-DD3C35995850,my_iOS_device,1519498579,38.03575485,-78.49849194,161.8275,0,-1,6,5,-9999,1519498580,-9.330364227,16.62555695,-2.166442871,74.85985565,84.63550568,25,1403481.956,0.002441406,-0.084243774,-0.995803833,1403481.95,0.019274895,0.030186931,0.026531476,1403481.938,-2.069072059,0.002756879,0.090871638,0.015661975,0.018068537,0.030196937,-0.003676288,-0.000317827,0.002477288,XArbitraryCorrectedZVertical,0.024389997,-0.038340762,-0.858705401,0.51045078,0.002745501,-0.090746626,-0.995870233,-9.330364227,16.62555695,-2.166442871,2,1403481.906,automotive,2,56:19.8,null,0,0,0,0,null,1403478.64,0,-0.02642822,100.2196,10.41.2.84,100.110.18.251,1,1,0.69,-120,-120,0
56:20.0,71,3DCCE5A0-AD64-4006-9610-DD3C35995850,my_iOS_device,1519498579,38.03575485,-78.49849194,161.8275,0,-1,6,5,-9999,1519498580,-9.087486267,16.62538147,-2.119873047,74.80196381,84.57761383,25,1403482.015,0.002807617,-0.093170166,-1.003555298,1403482.009,-0.037723144,-0.063536366,0.003511378,1403482.008,-2.067753668,0.003238724,0.09130452,-0.025207005,-0.05304914,0.00918675,0.002893545,-0.001778834,-0.015660465,XArbitraryCorrectedZVertical,0.024732646,-0.038387354,-0.858354211,0.511021316,0.003225228,-0.091177709,-0.995829403,-9.143112183,16.79857635,-1.931396484,2,1403481.906,automotive,2,56:19.8,null,0,0,0,0,null,1403479.585,0,-0.01585388,100.2195,10.41.2.84,100.110.18.251,1,1,0.69,-120,-120,0
56:20.0,72,3DCCE5A0-AD64-4006-9610-DD3C35995850,my_iOS_device,1519498579,38.03575485,-78.49849194,161.8275,0,-1,6,5,-9999,1519498580,-8.997970581,16.65103912,-2.149291992,74.76862335,84.54427338,25,1403482.075,-0.000640869,-0.085571289,-1.012542725,1403482.069,0.019274895,0.012867862,0.005221926,1403482.043,-2.067334468,0.001725253,0.090021918,-0.031401373,-0.002220436,0.017642351,-0.005960207,-0.000553727,0.004601002,XArbitraryCorrectedZVertical,0.023763441,-0.038218565,-0.858290792,0.511186361,0.001718266,-0.089900382,-0.995949268,-8.997970581,16.65103912,-2.149291992,2,1403481.906,automotive,2,56:19.8,null,0,0,0,0,null,1403479.585,0,-0.01585388,100.2195,10.41.2.84,100.110.18.251,1,1,0.69,-120,-120,0
56:20.1,73,3DCCE5A0-AD64-4006-9610-DD3C35995850,my_iOS_device,1519498580,38.03575485,-78.49849194,162.8237,0,141.6796875,4,5,-9999,1519498580,-9.198501587,16.65833282,-2.222961426,74.71279144,84.48844147,25,1403482.135,-0.002731323,-0.091888428,-0.992630005,1403482.129,-0.033413084,-0.057078733,0.002410427,1403482.112,-2.066059722,0.000259134,0.090904376,-0.003974043,-0.080176808,0.010220833,0.000245474,0.001088068,-0.000176966,XArbitraryCorrectedZVertical,0.023384623,-0.038957093,-0.857964873,0.511695087,0.000258065,-0.09077923,-0.995871007,-9.044334412,16.82833099,-2.050415039,2,1403481.906,automotive,2,56:19.8,null,0,0,0,0,null,1403479.585,0,-0.01585388,100.2195,10.41.2.84,100.110.18.251,1,1,0.69,-120,-120,0
56:20.1,74,3DCCE5A0-AD64-4006-9610-DD3C35995850,my_iOS_device,1519498580,38.03575485,-78.49849194,162.8237,0,141.6796875,4,5,-9999,1519498580,-9.109817505,16.63421631,-2.117736816,74.61836243,84.39401245,25,1403482.195,-0.002548218,-0.098434448,-0.993392944,1403482.188,0.009472331,0.00108364,0.037313284,1403482.182,-2.065087185,-0.001473838,0.090522302,0.019853385,0.000757608,0.029145416,-0.001126193,-0.004129477,-0.008261085,XArbitraryCorrectedZVertical,0.022562517,-0.039225597,-0.857743204,0.512082636,-0.001467803,-0.090398721,-0.995904565,-9.199321747,16.64698792,-2.22479248,2,1403481.906,automotive,2,56:19.8,null,0,0,0,0,null,1403479.585,0,-0.01585388,100.2195,10.41.2.84,100.110.18.251,1,1,0.69,-120,-120,0
56:20.2,75,3DCCE5A0-AD64-4006-9610-DD3C35995850,my_iOS_device,1519498580,38.03575485,-78.49849194,162.8237,0,141.6796875,4,5,-9999,1519498580,-8.898010254,16.66521454,-2.249023438,74.54832458,84.32397461,25,1403482.254,-0.001876831,-0.088546753,-1.004943848,1403482.248,-0.022366292,0.012003133,-0.003127883,1403482.252,-2.063472445,-0.000373262,0.090978626,-0.014137477,0.017106473,-0.00062271,-0.001154158,0.0017571,-0.008438766,XArbitraryCorrectedZVertical,0.023182957,-0.039120797,-0.85730803,0.512791038,-0.000371719,-0.09085317,-0.995864213,-8.988025665,16.61698914,-2.229553223,2,1403481.906,automotive,2,56:19.8,null,0,0,0,0,null,1403479.585,0,-0.01585388,100.2195,10.41.2.84,100.110.18.251,1,1,0.69,-120,-120,0
56:20.3,76,3DCCE5A0-AD64-4006-9610-DD3C35995850,my_iOS_device,1519498580,38.03575485,-78.49849194,162.8237,0,141.6796875,4,5,-9999,1519498580,-9.397335052,16.47489166,-2.472045898,74.53910828,84.3147583,25,1403482.314,-0.000839233,-0.089157104,-1.002807617,1403482.308,-0.021525798,-0.011730958,0.024672323,1403482.287,-2.063406372,0.00040141,0.090785186,-0.004500763,0.030035662,0.009977682,-0.001223732,-0.000754878,-0.004743814,XArbitraryCorrectedZVertical,0.023466708,-0.038838472,-0.857285857,0.512836814,0.000399757,-0.090660527,-0.995881796,-9.261188507,16.5476532,-2.280944824,2,1403481.906,automotive,2,56:19.8,null,0,0,0,0,null,1403479.585,0,-0.01585388,100.2195,10.41.2.84,100.110.18.251,1,1,0.69,-120,-120,0
56:20.3,77,3DCCE5A0-AD64-4006-9610-DD3C35995850,my_iOS_device,1519498580,38.03575485,-78.49849194,162.8237,0,141.6796875,4,5,-9999,1519498580,-9.149906158,16.53227234,-1.964538574,74.46038818,84.23603821,25,1403482.374,-0.003509521,-0.085281372,-1.005126953,1403482.367,0.011826566,0.026969033,0.014830878,1403482.356,-2.061553912,0.001685257,0.089785682,-0.00133318,0.035444699,0.025961084,-0.00062561,-0.001612976,-0.007081211,XArbitraryCorrectedZVertical,0.023796003,-0.038058788,-0.856814802,0.513666749,0.001678468,-0.0896651,-0.995970547,-9.051673889,16.67204285,-2.269958496,2,1403481.906,automotive,2,56:19.8,null,0,0,0,0,null,1403479.585,0,-0.01585388,100.2195,10.41.2.84,100.110.18.251,1,1,0.69,-120,-120,0
56:20.4,78,3DCCE5A0-AD64-4006-9610-DD3C35995850,my_iOS_device,1519498580,38.03575485,-78.49849194,162.8237,0,141.6796875,4,5,-9999,1519498580,-8.918750763,16.91518402,-2.335632324,74.40088654,84.17653656,25,1403482.433,0.007873535,-0.097213745,-0.992294312,1403482.427,0.009639578,0.023752201,0.023386815,1403482.426,-2.060161247,0.00402467,0.090767512,0.018973624,0.036413219,0.025869261,0.002019133,-0.005289078,-0.003834665,XArbitraryCorrectedZVertical,0.025076689,-0.037861113,-0.856409013,0.514297009,0.004008092,-0.090642929,-0.995875418,-9.038116455,16.55278778,-2.070373535,2,1403481.906,automotive,2,56:19.8,null,0,0,0,0,null,1403479.585,0,-0.01585388,100.2195,10.41.2.84,100.110.18.251,1,1,0.69,-120,-120,0
56:20.4,79,3DCCE5A0-AD64-4006-9610-DD3C35995850,my_iOS_device,1519498580,38.03575485,-78.49849194,162.8237,0,141.6796875,4,5,-9999,1519498580,-9.098236084,16.97211456,-2.266113281,74.25514984,84.03079987,25,1403482.493,0.003326416,-0.082244873,-1.00592041,1403482.487,-0.010630274,0.011945076,0.001088967,1403482.461,-2.058890565,0.004882239,0.091082468,0.014653131,0.036454052,0.037630275,-0.001245648,0.00178422,-0.002234399,XArbitraryCorrectedZVertical,0.025548859,-0.037759252,-0.856064856,0.514853656,0.004861982,-0.090956584,-0.995842993,-8.984268188,16.89380646,-2.045288086,2,1403481.906,automotive,2,56:19.8,null,0,0,0,0,null,1403479.585,0,-0.01585388,100.2195,10.41.2.84,100.110.18.251,1,1,0.69,-120,-120,0
56:20.5,80,3DCCE5A0-AD64-4006-9610-DD3C35995850,my_iOS_device,1519498580,38.03575485,-78.49849194,162.8237,0,141.6796875,4,5,-9999,1519498580,-8.95980072,16.70500946,-2.049316406,74.22220612,83.99785614,25,1403482.553,-0.000366211,-0.096084595,-0.993362427,1403482.546,0.000679639,-0.061559235,0.021479726,1403482.53,-2.057972565,0.005448444,0.09074812,-0.007046121,-0.046652626,0.017628219,-0.003594942,-0.007124186,-0.019083202,XArbitraryCorrectedZVertical,0.025722371,-0.037458558,-0.855827928,0.515260756,0.005425998,-0.090623617,-0.995870411,-8.95980072,16.70500946,-2.049316406,2,1403481.906,automotive,2,56:19.8,null,0,0,0,0,null,1403479.585,0,-0.01585388,100.2195,10.41.2.84,100.110.18.251,1,1,0.69,-120,-120,0
56:20.6,81,3DCCE5A0-AD64-4006-9610-DD3C35995850,my_iOS_device,1519498580,38.03575485,-78.49849194,162.8237,0,141.6796875,4,5,-9999,1519498581,-9.03295517,16.73030853,-2.152587891,74.18190765,83.95755768,25,1403482.612,0.009307861,-0.090393066,-1.008422852,1403482.606,0.016946227,-0.030346188,-9.59E-06,1403482.6,-2.057039675,0.003143755,0.091187517,0.012459752,-0.003563408,0.002504512,0.003430594,-0.003848478,-0.008493125,XArbitraryCorrectedZVertical,0.024867145,-0.038228739,-0.855607867,0.515611589,0.003130689,-0.091061197,-0.995840371,-9.03295517,16.73030853,-2.152587891,2,1403481.906,automotive,2,56:19.8,null,0,0,0,0,null,1403479.585,0,-0.01585388,100.2195,10.41.2.84,100.110.18.251,1,1,0.69,-120,-120,0
