loggingTime(txt),loggingSample(N),identifierForVendor(txt),deviceID(txt),locationTimestamp_since1970(s),locationLatitude(WGS84),locationLongitude(WGS84),locationAltitude(m),locationSpeed(m/s),locationCourse(°),locationVerticalAccuracy(m),locationHorizontalAccuracy(m),locationFloor(Z),locationHeadingTimestamp_since1970(s),locationHeadingX(µT),locationHeadingY(µT),locationHeadingZ(µT),locationTrueHeading(°),locationMagneticHeading(°),locationHeadingAccuracy(°),accelerometerTimestamp_sinceReboot(s),accelerometerAccelerationX(G),accelerometerAccelerationY(G),accelerometerAccelerationZ(G),gyroTimestamp_sinceReboot(s),gyroRotationX(rad/s),gyroRotationY(rad/s),gyroRotationZ(rad/s),motionTimestamp_sinceReboot(s),motionYaw(rad),motionRoll(rad),motionPitch(rad),motionRotationRateX(rad/s),motionRotationRateY(rad/s),motionRotationRateZ(rad/s),motionUserAccelerationX(G),motionUserAccelerationY(G),motionUserAccelerationZ(G),motionAttitudeReferenceFrame(txt),motionQuaternionX(R),motionQuaternionY(R),motionQuaternionZ(R),motionQuaternionW(R),motionGravityX(G),motionGravityY(G),motionGravityZ(G),motionMagneticFieldX(µT),motionMagneticFieldY(µT),motionMagneticFieldZ(µT),motionMagneticFieldCalibrationAccuracy(Z),activityTimestamp_sinceReboot(s),activity(txt),activityActivityConfidence(Z),activityActivityStartDate(txt),pedometerStartDate(txt),pedometerNumberofSteps(N),pedometerDistance(m),pedometerFloorAscended(N),pedometerFloorDescended(N),pedometerEndDate(txt),altimeterTimestamp_sinceReboot(s),altimeterReset(bool),altimeterRelativeAltitude(m),altimeterPressure(kPa),IP_en0(txt),IP_pdp_ip0(txt),deviceOrientation(Z),batteryState(R),batteryLevel(Z),avAudioRecorderPeakPower(dB),avAudioRecorderAveragePower(dB),state(N)
2018-02-27 16:36:54.043 -0500,1,3DCCE5A0-AD64-4006-9610-DD3C35995850,my_iOS_device,1519767411,38.03325792,-78.5144892,173.9707,-1,-1,15.22462273,65,-9999,1519767414,23.54279327,7.956680298,-2.15838623,93.45478821,103.2206497,50,1523849.301,-0.0007476806641,0.0009765625,-1.007019043,1523849.244,-0.00962466418,-0.004273840917,-0.003149454305,1523849.29,2.908739749,0.01167248671,-0.0002206079802,0.003961358219,-0.006785931531,0.0007699069101,0.01242140681,-0.003333400935,-0.005546033382,XArbitraryCorrectedZVertical,-0.005809512921,0.0005683997879,0.9932130575,0.116162248,0.01167222112,0.0002206079807,-0.9999318719,23.46878242,7.735168457,-2.249328613,2,1523848.799,automotive,0,2018-02-27 16:36:53.524 -0500,null,0,0,0,0,null,1523847.13,0,0,100.6573,0.0.0.0,100.83.11.234,1,1,0.52,-21.29015,-41.63469,0
2018-02-27 16:36:54.088 -0500,2,3DCCE5A0-AD64-4006-9610-DD3C35995850,my_iOS_device,1519767411,38.03325792,-78.5144892,173.9707,-1,-1,15.22462273,65,-9999,1519767414,23.22479248,7.746879578,-2.357727051,93.45439911,103.2202606,50,1523849.361,0.002777099609,0.01091003418,-1.015487671,1523849.304,-0.006419283492,-0.004291417781,-0.003163835375,1523849.36,2.908756516,0.01172150429,-0.0001336205433,0.002946161665,0.00402437197,0.0007488140836,0.005750077777,0.005542648956,-0.01375585794,XArbitraryCorrectedZVertical,-0.005828808062,0.0006143964711,0.9932139516,0.1161536649,0.0117212357,0.000133620546,-0.9999312758,23.22479248,7.746879578,-2.357727051,2,1523848.799,automotive,0,2018-02-27 16:36:53.524 -0500,null,0,0,0,0,null,1523847.13,0,0,100.6573,0.0.0.0,100.83.11.234,1,1,0.52,-22.4047,-42.2326,0
2018-02-27 16:36:54.147 -0500,3,3DCCE5A0-AD64-4006-9610-DD3C35995850,my_iOS_device,1519767411,38.03325792,-78.5144892,173.9707,-1,-1,15.22462273,65,-9999,1519767414,23.29456711,7.920967102,-2.326599121,93.46163177,103.2274933,50,1523849.421,0.01766967773,0.007797241211,-1.013671875,1523849.364,-0.007460046846,0.002198705796,-0.00210602779,1523849.395,2.908666396,0.01184121554,-6.07E-05,0.000810125377,0.001873001223,-0.002441477729,-0.006408809684,0.01020845771,-0.01268911362,XArbitraryCorrectedZVertical,-0.005883993581,0.000657823286,0.9932083488,0.1161981523,0.01184093859,6.07E-05,-0.9999299049,23.40960312,7.911972046,-2.213623047,2,1523848.799,automotive,0,2018-02-27 16:36:53.524 -0500,null,0,0,0,0,null,1523847.13,0,0,100.6573,0.0.0.0,100.83.11.234,1,1,0.52,-23.51926,-38.93519,0
2018-02-27 16:36:54.207 -0500,4,3DCCE5A0-AD64-4006-9610-DD3C35995850,my_iOS_device,1519767411,38.03325792,-78.5144892,173.9707,-1,-1,15.22462273,65,-9999,1519767414,23.69361687,7.865653992,-2.191223145,93.46461487,103.2304764,50,1523849.481,0.0142364502,-0.004028320313,-1.003997803,1523849.423,-0.004284493562,-0.006467220391,-0.005303418995,1523849.464,2.908587086,0.01189332862,1.99E-05,0.002945980523,0.005109008402,0.001822128776,-0.007406964898,0.00146951736,-0.007532298565,XArbitraryCorrectedZVertical,-0.005905159749,0.0007011311827,0.9932036996,0.1162373126,0.01189304795,-1.99E-05,-0.9999292493,23.55707169,7.884078979,-2.105407715,2,1523848.799,automotive,0,2018-02-27 16:36:53.524 -0500,null,0,0,0,0,null,1523847.13,0,0,100.6573,0.0.0.0,100.83.11.234,1,1,0.52,-25.1911,-41.27383,0
2018-02-27 16:36:54.267 -0500,5,3DCCE5A0-AD64-4006-9610-DD3C35995850,my_iOS_device,1519767411,38.03325792,-78.5144892,173.9707,-1,-1,15.22462273,65,-9999,1519767414,23.55189514,8.04044342,-2.135070801,93.45600891,103.2218704,50,1523849.54,0.00927734375,-0.0147857666,-0.9979095459,1523849.483,-0.004302603057,-0.007542871155,-0.002098837255,1523849.534,2.908811196,0.0119742095,4.81E-05,-0.002429395448,0.001903468743,0.006131455302,-0.01084477268,-0.01054151915,-0.001216113567,XArbitraryCorrectedZVertical,-0.005943770986,0.0007191441837,0.9932163358,0.1161258519,0.01197392307,-4.81E-05,-0.9999282956,23.51585007,7.926818848,-2.148132324,2,1523848.799,automotive,0,2018-02-27 16:36:53.524 -0500,null,0,0,0,0,null,1523847.13,0,0,100.6573,0.0.0.0,100.83.11.234,1,1,0.52,-26.30566,-42.5031,0
2018-02-27 16:36:54.338 -0500,6,3DCCE5A0-AD64-4006-9610-DD3C35995850,my_iOS_device,1519767411,38.03325792,-78.5144892,173.9707,-1,-1,15.22462273,65,-9999,1519767414,23.52789307,7.801818848,-2.03338623,93.43432617,103.2001877,50,1523849.6,-0.0003967285156,-0.0110168457,-0.9987335205,1523849.543,-0.001094026576,-0.004314320966,0.001081776035,1523849.569,2.908973909,0.01210079362,0.0002366523681,0.006172171328,0.01265974902,0.006071086042,-0.01173428632,-0.001212932635,-0.007489025593,XArbitraryCorrectedZVertical,-0.005995751359,0.0008196525159,0.9932254553,0.1160444319,0.01210049819,-0.0002366523695,-0.9999267459,23.41035843,8.065231323,-2.259460449,2,1523848.799,automotive,0,2018-02-27 16:36:53.524 -0500,null,0,0,0,0,null,1523847.13,0,0,100.6573,0.0.0.0,100.83.11.234,1,1,0.52,-27.97749,-39.04277,0
2018-02-27 16:36:54.386 -0500,7,3DCCE5A0-AD64-4006-9610-DD3C35995850,my_iOS_device,1519767411,38.03325792,-78.5144892,173.9707,-1,-1,15.22462273,65,-9999,1519767414,23.28945541,7.762306213,-2.097229004,93.42340851,103.18927,50,1523849.66,0.0004577636719,0.000732421875,-1.010681152,1523849.602,-0.002104962526,0.006494384634,-4.79E-06,1523849.639,2.909227039,0.01263379007,0.0006881196443,0.0008272211999,0.01052603684,0.003963434137,-0.007186063565,-0.01234288607,-0.0002478957176,XArbitraryCorrectedZVertical,-0.006234385539,0.001073993044,0.9932384491,0.1159170195,0.01263345126,-0.0006881196168,-0.999919951,23.50371933,7.717720032,-2.121643066,2,1523848.799,automotive,0,2018-02-27 16:36:53.524 -0500,null,0,0,0,0,null,1523847.13,0,0,100.6573,0.0.0.0,100.83.11.234,1,1,0.52,-29.64933,-36.09538,0
2018-02-27 16:36:54.446 -0500,8,3DCCE5A0-AD64-4006-9610-DD3C35995850,my_iOS_device,1519767411,38.03325792,-78.5144892,173.9707,-1,-1,15.22462273,65,-9999,1519767414,23.52178001,7.691192627,-2.245117188,93.41652679,103.1823883,50,1523849.719,0.01037597656,0.01054382324,-1.01663208,1523849.662,-0.01820536921,-0.007461911058,0.001165665609,1523849.708,2.909416798,0.01228367835,0.0003146835247,-0.00458717579,-0.005653030705,0.001886292244,0.003158526495,-0.0116024306,0.001496136189,XArbitraryCorrectedZVertical,-0.006082240026,0.00086766819,0.9932504296,0.1158241108,0.01228336897,-0.0003146835079,-0.9999244809,23.52178001,7.691192627,-2.245117188,2,1523848.799,automotive,0,2018-02-27 16:36:53.524 -0500,null,0,0,0,0,null,1523847.13,0,0,100.6573,0.0.0.0,100.83.11.234,1,1,0.52,-30.76389,-37.10357,0
2018-02-27 16:36:54.506 -0500,9,3DCCE5A0-AD64-4006-9610-DD3C35995850,my_iOS_device,1519767411,38.03325792,-78.5144892,173.9707,-1,-1,15.22462273,65,-9999,1519767414,23.52903748,7.657997131,-2.02911377,93.41248322,103.1783447,50,1523849.779,0.02084350586,0.008728027344,-1.015853882,1523849.722,-0.004304733586,-0.005377188557,0.00109855395,1523849.778,2.909488603,0.01218626343,0.0003450006103,-0.002435890492,-0.004588570911,-0.0002588583156,0.01090058684,-0.00597213814,-0.006727159023,XArbitraryCorrectedZVertical,-0.006032135803,0.0008768664557,0.9932550788,0.1157884672,0.01218596101,-0.0003450005897,-0.999925673,23.53600693,7.988571167,-2.023681641,2,1523848.799,automotive,0,2018-02-27 16:36:53.524 -0500,null,0,0,0,0,null,1523848.151,0,-0.07662582,100.6582,0.0.0.0,100.83.11.234,1,1,0.52,-32.43573,-38.55872,0
2018-02-27 16:36:54.577 -0500,10,3DCCE5A0-AD64-4006-9610-DD3C35995850,my_iOS_device,1519767411,38.03325792,-78.5144892,173.9707,-1,-1,15.22462273,65,-9999,1519767415,23.57119179,7.886138916,-2.028869629,93.41163635,103.1774979,50,1523849.839,0.01931762695,-0.004684448242,-1.007217407,1523849.782,-0.005380650666,-0.008615858759,-0.001024251755,1523849.813,2.909511799,0.01207912448,0.0003667544937,-0.001382464543,-0.00566922361,0.001869802363,0.004858425818,0.0108648017,-0.01244789362,XArbitraryCorrectedZVertical,-0.005977677647,0.0008813980385,0.9932568669,0.115776971,0.01207883004,-0.0003667544806,-0.9999269843,23.57119179,7.886138916,-2.028869629,2,1523848.799,automotive,0,2018-02-27 16:36:53.524 -0500,null,0,0,0,0,null,1523848.151,0,-0.07662582,100.6582,0.0.0.0,100.83.11.234,1,1,0.52,-32.78559,-39.38987,0
2018-02-27 16:36:54.625 -0500,11,3DCCE5A0-AD64-4006-9610-DD3C35995850,my_iOS_device,1519767411,38.03325792,-78.5144892,173.9707,-1,-1,15.22462273,65,-9999,1519767415,23.74836159,8.161643982,-2.071228027,93.40665436,103.1725159,50,1523849.898,0.01463317871,-0.01443481445,-0.9987335205,1523849.841,-0.00644058878,-0.008613195598,-0.003154247995,1523849.882,2.909598946,0.0120656029,0.0003785439051,0.00293235667,0.001870018896,0.0007646710146,-0.003810304217,0.01344006695,-0.01284444332,XArbitraryCorrectedZVertical,-0.005970318336,0.000886210124,0.9932619929,0.1157336757,0.0120653091,-0.0003785438894,-0.9999271631,23.57784462,7.989746094,-2.105529785,2,1523848.799,automotive,0,2018-02-27 16:36:53.524 -0500,null,0,0,0,0,null,1523848.151,0,-0.07662582,100.6582,0.0.0.0,100.83.11.234,1,1,0.52,-32.78559,-38.25826,0
2018-02-27 16:36:54.685 -0500,12,3DCCE5A0-AD64-4006-9610-DD3C35995850,my_iOS_device,1519767411,38.03325792,-78.5144892,173.9707,-1,-1,15.22462273,65,-9999,1519767415,23.77389145,7.817092896,-1.878967285,93.40345764,103.1693192,50,1523849.958,0.002746582031,-0.01191711426,-0.9986724854,1523849.901,-0.008573248181,-0.008603075585,-0.00421205558,1523849.952,2.909641264,0.01220142855,0.0005010100656,0.0008056280203,0.004043573048,0.0007680063136,-0.01017170493,0.003018710297,-0.007780253887,XArbitraryCorrectedZVertical,-0.006030707154,0.0009547627415,0.9932640195,0.1157122105,0.01220112387,-0.0005010100431,-0.9999254346,23.77389145,7.817092896,-1.878967285,2,1523848.799,automotive,0,2018-02-27 16:36:53.524 -0500,null,0,0,0,0,null,1523848.151,0,-0.07662582,100.6582,0.0.0.0,100.83.11.234,1,1,0.52,-32.78559,-39.40413,0
2018-02-27 16:36:54.744 -0500,13,3DCCE5A0-AD64-4006-9610-DD3C35995850,my_iOS_device,1519767411,38.03325792,-78.5144892,173.9707,-1,-1,15.22462273,65,-9999,1519767415,23.90596008,7.949676514,-2.096679688,93.40361786,103.1694794,50,1523850.018,-0.0007019042969,4.58E-05,-1.0050354,1523849.961,-0.006403304525,-0.001050084418,-0.00317102591,1523849.987,2.909638571,0.01232346254,0.0007022438273,0.009383905679,0.008313701488,-0.001412288984,-0.006891018711,0.007934909314,-0.01332080364,XArbitraryCorrectedZVertical,-0.00607966911,0.001061770367,0.993263483,0.1157128513,0.01232314762,-0.000702243764,-0.9999238253,23.67983818,7.823783875,-2.153991699,2,1523848.799,automotive,0,2018-02-27 16:36:53.524 -0500,null,0,0,0,0,null,1523848.151,0,-0.07662582,100.6582,0.0.0.0,100.83.11.234,1,1,0.52,-32.78559,-36.78828,0
2018-02-27 16:36:54.820 -0500,14,3DCCE5A0-AD64-4006-9610-DD3C35995850,my_iOS_device,1519767411,38.03325792,-78.5144892,173.9707,-1,-1,15.22462273,65,-9999,1519767415,23.56168365,7.859634399,-2.070800781,93.4063797,103.1722412,50,1523850.077,0.007598876953,0.008865356445,-1.012390137,1523850.02,-0.005328452709,0.001106543433,-0.002113218325,1523850.056,2.909593447,0.01255728658,0.001209293,0.01258963533,0.005049876403,-0.005691329017,-0.01069537457,-0.003215756034,-0.00661033392,XArbitraryCorrectedZVertical,-0.006166425534,0.001327254111,0.993260324,0.1157335788,0.01255694777,-0.001209292677,-0.9999204278,23.56168365,7.859634399,-2.070800781,2,1523848.799,automotive,0,2018-02-27 16:36:53.524 -0500,null,0,0,0,0,null,1523848.151,0,-0.07662582,100.6582,0.0.0.0,100.83.11.234,1,1,0.52,-32.78559,-38.63089,0
2018-02-27 16:36:54.864 -0500,15,3DCCE5A0-AD64-4006-9610-DD3C35995850,my_iOS_device,1519767411,38.03325792,-78.5144892,173.9707,-1,-1,15.22462273,65,-9999,1519767415,23.81563377,8.009361267,-1.869873047,93.4135437,103.1794052,50,1523850.137,0.01913452148,0.009124755859,-1.017379761,1523850.08,0.00646935092,0.00751996797,-0.005382514879,1523850.126,2.909459006,0.01291058469,0.001925937169,-0.0002622688189,0.004048273433,0.0007745826151,-0.005769088864,-0.01369906403,-0.0002682805061,XArbitraryCorrectedZVertical,-0.0063002971,0.001704028109,0.9932513237,0.1157977432,0.01291020215,-0.001925935969,-0.999914825,23.83752823,8.052261353,-2.051513672,2,1523848.799,automotive,0,2018-02-27 16:36:53.524 -0500,null,0,0,0,0,null,1523848.151,0,-0.07662582,100.6582,0.0.0.0,100.83.11.234,1,1,0.52,-32.78559,-39.54434,0
2018-02-27 16:36:54.923 -0500,16,3DCCE5A0-AD64-4006-9610-DD3C35995850,my_iOS_device,1519767411,38.03325792,-78.5144892,173.9707,-1,-1,15.22462273,65,-9999,1519767415,23.5694809,7.89956665,-2.039245605,93.41716766,103.1830292,50,1523850.197,0.02075195313,-0.003219604492,-1.009216309,1523850.14,-0.008593488205,-0.01184281105,-0.00313747008,1523850.196,2.909312511,0.01276743674,0.001929519025,0.00296395598,0.004023655783,-0.004578231834,0.00175930094,-0.01282573119,0.0001149773598,XArbitraryCorrectedZVertical,-0.006228874438,0.001697975094,0.9932432771,0.1158706024,0.01276706625,-0.001929517835,-0.9999166131,23.56024742,8.102966309,-2.144470215,2,1523848.799,automotive,0,2018-02-27 16:36:53.524 -0500,null,0,0,0,0,null,1523848.151,0,-0.07662582,100.6582,0.0.0.0,100.83.11.234,1,1,0.52,-32.78559,-38.15472,0
2018-02-27 16:36:54.983 -0500,17,3DCCE5A0-AD64-4006-9610-DD3C35995850,my_iOS_device,1519767411,38.03325792,-78.5144892,173.9707,-1,-1,15.22462273,65,-9999,1519767415,23.71062279,8.254478455,-2.052429199,93.42621613,103.1920776,50,1523850.257,0.01634216309,-0.01483154297,-0.9990234375,1523850.199,0.006420348756,-0.003286074469,-0.006425941394,1523850.23,2.909261983,0.01312780111,0.002424581534,0.01581895351,0.01260135788,-0.002522084629,0.008906305768,0.0003799013793,-0.008145749569,XArbitraryCorrectedZVertical,-0.006379106082,0.001964872237,0.9932389259,0.1158936694,0.01312738564,-0.002424579114,-0.9999108911,23.72008133,7.956726074,-1.939147949,2,1523848.799,automotive,0,2018-02-27 16:36:53.524 -0500,null,0,0,0,0,null,1523848.151,0,-0.07662582,100.6582,0.0.0.0,100.83.11.234,1,1,0.52,-32.78559,-39.37135,0
2018-02-27 16:36:55.059 -0500,18,3DCCE5A0-AD64-4006-9610-DD3C35995850,my_iOS_device,1519767411,38.03325792,-78.5144892,173.9707,-1,-1,15.22462273,65,-9999,1519767415,23.49028778,8.099685669,-1.849365234,93.42321777,103.1890793,45,1523850.316,0.008666992188,-0.01594543457,-0.9983062744,1523850.259,2.13E-06,-0.002165682598,-0.003197391205,1523850.3,2.909288871,0.01359459774,0.003059362246,-0.002450381871,-0.007825782523,-0.001327818492,0.00424340833,0.01049038768,-0.0151117444,XArbitraryCorrectedZVertical,-0.006574166939,0.002307076473,0.9932389855,0.1158777326,0.01359411515,-0.003059357405,-0.999902904,23.54167557,8.015739441,-1.891723633,2,1523848.799,automotive,0,2018-02-27 16:36:53.524 -0500,null,0,0,0,0,null,1523848.151,0,-0.07662582,100.6582,0.0.0.0,100.83.11.234,1,1,0.52,-32.78559,-41.44592,0
2018-02-27 16:36:55.103 -0500,19,3DCCE5A0-AD64-4006-9610-DD3C35995850,my_iOS_device,1519767411,38.03325792,-78.5144892,173.9707,-1,-1,15.22462273,65,-9999,1519767415,23.38175583,7.967056274,-1.901733398,93.42428589,103.1901474,45,1523850.376,0.003387451172,-0.003295898438,-1.00680542,1523850.319,-0.01285241542,-0.009660084222,-0.004190483975,1523850.37,2.909240138,0.01358490173,0.003212416926,0.01899948344,0.008262132294,-0.001457215287,-0.004627505317,0.01268811896,-0.01471537352,XArbitraryCorrectedZVertical,-0.006560423877,0.002382684266,0.9932361841,0.1159014329,0.01358441357,-0.003212411422,-0.9999025464,23.60249901,8.146575928,-1.874633789,2,1523848.799,automotive,0,2018-02-27 16:36:53.524 -0500,null,0,0,0,0,null,1523848.151,0,-0.07662582,100.6582,0.0.0.0,100.83.11.234,1,1,0.52,-32.78559,-39.48598,0
2018-02-27 16:36:55.162 -0500,20,3DCCE5A0-AD64-4006-9610-DD3C35995850,my_iOS_device,1519767411,38.03325792,-78.5144892,173.9707,-1,-1,15.22462273,65,-9999,1519767415,23.74157333,7.97555542,-1.915527344,93.45056152,103.216423,45,1523850.436,0.007232666016,0.003128051758,-1.017333984,1523850.378,0.03218270388,0.01817740602,-0.009791111748,1523850.405,2.908819847,0.01421831154,0.004662274527,0.06313404441,0.03387832269,-0.05188013986,0.002383884043,0.01378701348,-0.02132165432,XArbitraryCorrectedZVertical,-0.006790288258,0.00314083905,0.9932088852,0.1161041185,0.01421767753,-0.004662257619,-0.9998880625,23.74157333,7.97555542,-1.915527344,2,1523848.799,automotive,0,2018-02-27 16:36:53.524 -0500,null,0,0,0,0,null,1523848.151,0,-0.07662582,100.6582,0.0.0.0,100.83.11.234,1,1,0.52,-6.273396,-7.370238,0
2018-02-27 16:36:55.223 -0500,21,3DCCE5A0-AD64-4006-9610-DD3C35995850,my_iOS_device,1519767411,38.03325792,-78.5144892,173.9707,-1,-1,15.22462273,65,-9999,1519767415,23.5128746,7.826538086,-1.735656738,93.45344543,103.2193069,45,1523850.495,0.0228729248,0.006088256836,-1.013916016,1523850.438,-0.001070590758,-0.002158225747,-0.00212520255,1523850.474,2.908769829,0.01438163443,0.00505041489,-0.02595980465,-0.006613036618,0.0009097116999,-0.006293796934,0.007522317115,-0.01471883059,XArbitraryCorrectedZVertical,-0.006848773919,0.003343243152,0.9932049513,0.1161272004,0.01438095514,-0.005050393287,-0.9998838305,23.38783646,8.080024719,-1.804626465,2,1523848.799,automotive,0,2018-02-27 16:36:53.524 -0500,null,0,0,0,0,null,1523848.151,0,-0.07662582,100.6582,0.0.0.0,100.83.11.234,1,1,0.52,-6.273396,-10.67492,0
2018-02-27 16:36:55.292 -0500,22,3DCCE5A0-AD64-4006-9610-DD3C35995850,my_iOS_device,1519767411,38.03325792,-78.5144892,173.9707,-1,-1,15.22462273,65,-9999,1519767415,23.16481209,8.154472351,-1.473693848,93.48937988,103.2552414,45,1523850.555,0.0246887207,-0.00309753418,-1.008239746,1523850.498,-0.0203444202,-0.005284510551,0.004372644194,1523850.544,2.908537806,0.01421594156,0.004815356535,0.04468305409,0.01568512619,-0.002659676131,-0.01064474136,0.003930328414,-0.01329624653,XArbitraryCorrectedZVertical,-0.006779768504,0.003217678517,0.9931923747,0.1162436157,0.014215298,-0.004815337714,-0.9998873472,23.16481209,8.154472351,-1.473693848,2,1523848.799,automotive,0,2018-02-27 16:36:53.524 -0500,null,0,0,0,0,null,1523848.151,0,-0.07662582,100.6582,0.0.0.0,100.83.11.234,1,1,0.52,-3.475834,-13.27893,0
2018-02-27 16:36:55.341 -0500,23,3DCCE5A0-AD64-4006-9610-DD3C35995850,my_iOS_device,1519767411,38.03325792,-78.5144892,173.9707,-1,-1,15.22462273,65,-9999,1519767415,23.20999718,8.739326477,-1.305786133,93.49199677,103.2578583,45,1523850.615,0.01481628418,-0.01811218262,-0.9981231689,1523850.558,0.0481084072,0.006220611674,0.0008372978467,1523850.544,2.908537806,0.01421594156,0.004815356535,0.04468305409,0.01568512619,-0.002659676131,-0.01064474136,0.003930328414,-0.01329624653,XArbitraryCorrectedZVertical,-0.006779768504,0.003217678517,0.9931923747,0.1162436157,0.014215298,-0.004815337714,-0.9998873472,23.16481209,8.154472351,-1.473693848,2,1523848.799,automotive,0,2018-02-27 16:36:53.524 -0500,null,0,0,0,0,null,1523848.151,0,-0.07662582,100.6582,0.0.0.0,100.83.11.234,1,1,0.52,-3.475834,-15.41683,0
2018-02-27 16:36:55.401 -0500,24,3DCCE5A0-AD64-4006-9610-DD3C35995850,my_iOS_device,1519767411,38.03325792,-78.5144892,173.9707,-1,-1,15.22462273,65,-9999,1519767415,23.3058815,8.714645386,-1.57598877,93.49350739,103.2593689,45,1523850.674,0.005020141602,-0.01039123535,-1.01524353,1523850.617,-0.03102050038,-0.009558884101,-0.003041596281,1523850.544,2.908537806,0.01421594156,0.004815356535,0.04468305409,0.01568512619,-0.002659676131,-0.01064474136,0.003930328414,-0.01329624653,XArbitraryCorrectedZVertical,-0.006779768504,0.003217678517,0.9931923747,0.1162436157,0.014215298,-0.004815337714,-0.9998873472,23.16481209,8.154472351,-1.473693848,2,1523848.799,automotive,0,2018-02-27 16:36:53.524 -0500,null,0,0,0,0,null,1523848.151,0,-0.07662582,100.6582,0.0.0.0,100.83.11.234,1,1,0.52,-3.475834,-17.51964,0
2018-02-27 16:36:55.460 -0500,25,3DCCE5A0-AD64-4006-9610-DD3C35995850,my_iOS_device,1519767411,38.03325792,-78.5144892,173.9707,-1,-1,15.22462273,65,-9999,1519767415,23.33381271,8.504013062,-1.735351563,93.51312256,103.2789841,45,1523850.734,-0.002227783203,0.006530761719,-1.013366699,1523850.677,-0.08558973638,-0.02330265954,-0.0006311691783,1523850.544,2.908537806,0.01421594156,0.004815356535,0.04468305409,0.01568512619,-0.002659676131,-0.01064474136,0.003930328414,-0.01329624653,XArbitraryCorrectedZVertical,-0.006779768504,0.003217678517,0.9931923747,0.1162436157,0.014215298,-0.004815337714,-0.9998873472,23.16481209,8.154472351,-1.473693848,2,1523848.799,automotive,0,2018-02-27 16:36:53.524 -0500,null,0,0,0,0,null,1523848.151,0,-0.07662582,100.6582,0.0.0.0,100.83.11.234,1,1,0.52,-3.475834,-12.33581,0
2018-02-27 16:36:55.528 -0500,26,3DCCE5A0-AD64-4006-9610-DD3C35995850,my_iOS_device,1519767411,38.03325792,-78.5144892,173.9707,-1,-1,15.22462273,65,-9999,1519767415,23.38387108,8.380584717,-1.758361816,93.55097198,103.3168335,45,1523850.794,0.01075744629,0.008926391602,-1.014175415,1523850.737,-0.03635214888,-0.01602823502,-0.01367719641,1523850.544,2.908537806,0.01421594156,0.004815356535,0.04468305409,0.01568512619,-0.002659676131,-0.01064474136,0.003930328414,-0.01329624653,XArbitraryCorrectedZVertical,-0.006779768504,0.003217678517,0.9931923747,0.1162436157,0.014215298,-0.004815337714,-0.9998873472,23.16481209,8.154472351,-1.473693848,2,1523848.799,automotive,0,2018-02-27 16:36:53.524 -0500,null,0,0,0,0,null,1523849.172,0,-0.09512329,100.6584,0.0.0.0,100.83.11.234,1,1,0.52,-3.475834,-15.06827,0
2018-02-27 16:36:55.580 -0500,27,3DCCE5A0-AD64-4006-9610-DD3C35995850,my_iOS_device,1519767411,38.03325792,-78.5144892,173.9707,-1,-1,15.22462273,65,-9999,1519767416,23.78178215,8.394203186,-1.929992676,93.54597473,103.3118362,45,1523850.853,0.02088928223,-0.002059936523,-1.004669189,1523850.796,-0.005351888527,-0.005379319086,-0.004233627185,1523850.544,2.908537806,0.01421594156,0.004815356535,0.04468305409,0.01568512619,-0.002659676131,-0.01064474136,0.003930328414,-0.01329624653,XArbitraryCorrectedZVertical,-0.006779768504,0.003217678517,0.9931923747,0.1162436157,0.014215298,-0.004815337714,-0.9998873472,23.16481209,8.154472351,-1.473693848,2,1523848.799,automotive,0,2018-02-27 16:36:53.524 -0500,null,0,0,0,0,null,1523849.172,0,-0.09512329,100.6584,0.0.0.0,100.83.11.234,1,1,0.52,-3.475834,-17.20262,0
2018-02-27 16:36:55.640 -0500,28,3DCCE5A0-AD64-4006-9610-DD3C35995850,my_iOS_device,1519767411,38.03325792,-78.5144892,173.9707,-1,-1,15.22462273,65,-9999,1519767416,23.76791,8.219421387,-1.844604492,93.54712677,103.3129883,45,1523850.913,0.0152130127,-0.01397705078,-0.9954071045,1523850.856,-0.006410761376,-0.004294613574,-0.005298625305,1523850.544,2.908537806,0.01421594156,0.004815356535,0.04468305409,0.01568512619,-0.002659676131,-0.01064474136,0.003930328414,-0.01329624653,XArbitraryCorrectedZVertical,-0.006779768504,0.003217678517,0.9931923747,0.1162436157,0.014215298,-0.004815337714,-0.9998873472,23.16481209,8.154472351,-1.473693848,2,1523848.799,automotive,0,2018-02-27 16:36:53.524 -0500,null,0,0,0,0,null,1523849.172,0,-0.09512329,100.6584,0.0.0.0,100.83.11.234,1,1,0.52,-3.475834,-20.50214,0
2018-02-27 16:36:55.699 -0500,29,3DCCE5A0-AD64-4006-9610-DD3C35995850,my_iOS_device,1519767411,38.03325792,-78.5144892,173.9707,-1,-1,15.22462273,65,-9999,1519767416,23.79409409,8.408691406,-1.985290527,93.5460968,103.3119583,45,1523850.973,0.0068359375,-0.01016235352,-1.001312256,1523850.916,-0.008589227148,-0.01184440895,-0.004204865045,1523850.544,2.908537806,0.01421594156,0.004815356535,0.04468305409,0.01568512619,-0.002659676131,-0.01064474136,0.003930328414,-0.01329624653,XArbitraryCorrectedZVertical,-0.006779768504,0.003217678517,0.9931923747,0.1162436157,0.014215298,-0.004815337714,-0.9998873472,23.16481209,8.154472351,-1.473693848,2,1523848.799,automotive,0,2018-02-27 16:36:53.524 -0500,null,0,0,0,0,null,1523849.172,0,-0.09512329,100.6584,0.0.0.0,100.83.11.234,1,1,0.52,-3.475834,-22.5788,0
2018-02-27 16:36:55.768 -0500,30,3DCCE5A0-AD64-4006-9610-DD3C35995850,my_iOS_device,1519767411,38.03325792,-78.5144892,173.9707,-1,-1,15.22462273,65,-9999,1519767416,23.83678627,7.967910767,-1.949401855,93.54725647,103.313118,45,1523851.033,0.004196166992,0.003402709961,-1.011047363,1523850.975,-0.00962466418,-0.004273840917,-0.003149454305,1523850.544,2.908537806,0.01421594156,0.004815356535,0.04468305409,0.01568512619,-0.002659676131,-0.01064474136,0.003930328414,-0.01329624653,XArbitraryCorrectedZVertical,-0.006779768504,0.003217678517,0.9931923747,0.1162436157,0.014215298,-0.004815337714,-0.9998873472,23.16481209,8.154472351,-1.473693848,2,1523848.799,automotive,0,2018-02-27 16:36:53.524 -0500,null,0,0,0,0,null,1523849.172,0,-0.09512329,100.6584,0.0.0.0,100.83.11.234,1,1,0.52,-3.475834,-25.57059,0
2018-02-27 16:36:55.819 -0500,31,3DCCE5A0-AD64-4006-9610-DD3C35995850,my_iOS_device,1519767411,38.03325792,-78.5144892,173.9707,-1,-1,15.22462273,65,-9999,1519767416,23.77889252,8.345428467,-1.766418457,93.54865265,103.3145142,45,1523851.092,0.01019287109,0.01129150391,-1.017089844,1523851.035,-0.007481352134,-0.002123072021,-0.00209644041,1523850.544,2.908537806,0.01421594156,0.004815356535,0.04468305409,0.01568512619,-0.002659676131,-0.01064474136,0.003930328414,-0.01329624653,XArbitraryCorrectedZVertical,-0.006779768504,0.003217678517,0.9931923747,0.1162436157,0.014215298,-0.004815337714,-0.9998873472,23.16481209,8.154472351,-1.473693848,2,1523848.799,automotive,0,2018-02-27 16:36:53.524 -0500,null,0,0,0,0,null,1523849.172,0,-0.09512329,100.6584,0.0.0.0,100.83.11.234,1,1,0.52,-3.475834,-27.58966,0
2018-02-27 16:36:55.879 -0500,32,3DCCE5A0-AD64-4006-9610-DD3C35995850,my_iOS_device,1519767411,38.03325792,-78.5144892,173.9707,-1,-1,15.22462273,65,-9999,1519767416,23.48955727,8.224266052,-2.032592773,93.55097198,103.3168335,45,1523851.152,0.02476501465,0.003494262695,-1.009155273,1523851.095,-0.006410761376,3.52E-05,2.88E-05,1523850.544,2.908537806,0.01421594156,0.004815356535,0.04468305409,0.01568512619,-0.002659676131,-0.01064474136,0.003930328414,-0.01329624653,XArbitraryCorrectedZVertical,-0.006779768504,0.003217678517,0.9931923747,0.1162436157,0.014215298,-0.004815337714,-0.9998873472,23.16481209,8.154472351,-1.473693848,2,1523848.799,automotive,0,2018-02-27 16:36:53.524 -0500,null,0,0,0,0,null,1523849.172,0,-0.09512329,100.6584,0.0.0.0,100.83.11.234,1,1,0.52,-3.475834,-30.49372,0
2018-02-27 16:36:55.938 -0500,33,3DCCE5A0-AD64-4006-9610-DD3C35995850,my_iOS_device,1519767411,38.03325792,-78.5144892,173.9707,-1,-1,15.22462273,65,-9999,1519767416,23.56622314,8.386070251,-1.936462402,93.54915619,103.3150177,45,1523851.212,0.02368164063,-0.01129150391,-1.000534058,1523851.154,-0.003245860737,-0.01079166137,-0.003163835375,1523850.544,2.908537806,0.01421594156,0.004815356535,0.04468305409,0.01568512619,-0.002659676131,-0.01064474136,0.003930328414,-0.01329624653,XArbitraryCorrectedZVertical,-0.006779768504,0.003217678517,0.9931923747,0.1162436157,0.014215298,-0.004815337714,-0.9998873472,23.16481209,8.154472351,-1.473693848,2,1523848.799,automotive,0,2018-02-27 16:36:53.524 -0500,null,0,0,0,0,null,1523849.172,0,-0.09512329,100.6584,0.0.0.0,100.83.11.234,1,1,0.52,-3.475834,-32.24247,0
2018-02-27 16:36:56.011 -0500,34,3DCCE5A0-AD64-4006-9610-DD3C35995850,my_iOS_device,1519767411,38.03325792,-78.5144892,173.9707,-1,-1,15.22462273,65,-9999,1519767416,23.69420815,8.251419067,-1.947570801,93.55023193,103.3160934,45,1523851.271,0.001388549805,-0.01460266113,-0.9992218018,1523851.214,-0.004432565318,-0.03563762276,-0.004171309215,1523850.544,2.908537806,0.01421594156,0.004815356535,0.04468305409,0.01568512619,-0.002659676131,-0.01064474136,0.003930328414,-0.01329624653,XArbitraryCorrectedZVertical,-0.006779768504,0.003217678517,0.9931923747,0.1162436157,0.014215298,-0.004815337714,-0.9998873472,23.16481209,8.154472351,-1.473693848,2,1523848.799,automotive,0,2018-02-27 16:36:53.524 -0500,null,0,0,0,0,null,1523849.172,0,-0.09512329,100.6584,0.0.0.0,100.83.11.234,1,1,0.52,-3.475834,-34.7507,0
2018-02-27 16:36:56.057 -0500,35,3DCCE5A0-AD64-4006-9610-DD3C35995850,my_iOS_device,1519767411,38.03325792,-78.5144892,173.9707,-1,-1,15.22462273,65,-9999,1519767416,23.61973381,7.968894958,-2.019348145,93.54886627,103.3147278,45,1523851.331,-0.002075195313,-0.002456665039,-1.008270264,1523851.274,-0.01166464557,0.01626791952,-0.002118012015,1523850.544,2.908537806,0.01421594156,0.004815356535,0.04468305409,0.01568512619,-0.002659676131,-0.01064474136,0.003930328414,-0.01329624653,XArbitraryCorrectedZVertical,-0.006779768504,0.003217678517,0.9931923747,0.1162436157,0.014215298,-0.004815337714,-0.9998873472,23.16481209,8.154472351,-1.473693848,2,1523848.799,automotive,0,2018-02-27 16:36:53.524 -0500,null,0,0,0,0,null,1523849.172,0,-0.09512329,100.6584,0.0.0.0,100.83.11.234,1,1,0.52,-3.475834,-36.64449,0
2018-02-27 16:36:56.117 -0500,36,3DCCE5A0-AD64-4006-9610-DD3C35995850,my_iOS_device,1519767411,38.03325792,-78.5144892,173.9707,-1,-1,15.22462273,65,-9999,1519767416,23.71253395,8.020584106,-1.808837891,93.54873657,103.3145981,45,1523851.391,0.003601074219,0.008697509766,-1.014846802,1523851.366,-0.007487743721,-0.004285558826,-0.003159041685,1523850.544,2.908537806,0.01421594156,0.004815356535,0.04468305409,0.01568512619,-0.002659676131,-0.01064474136,0.003930328414,-0.01329624653,XArbitraryCorrectedZVertical,-0.006779768504,0.003217678517,0.9931923747,0.1162436157,0.014215298,-0.004815337714,-0.9998873472,23.16481209,8.154472351,-1.473693848,2,1523848.799,automotive,0,2018-02-27 16:36:53.524 -0500,null,0,0,0,0,null,1523849.172,0,-0.09512329,100.6584,0.0.0.0,100.83.11.234,1,1,0.52,-3.475834,-38.44791,0
2018-02-27 16:36:56.177 -0500,37,3DCCE5A0-AD64-4006-9610-DD3C35995850,my_iOS_device,1519767411,38.03325792,-78.5144892,173.9707,-1,-1,15.22462273,65,-9999,1519767416,23.92168045,8.718955994,-1.374389648,93.54914856,103.3150101,45,1523851.45,0.02041625977,0.006881713867,-1.014373779,1523851.435,-0.01068779809,-0.003187537509,-0.00314705746,1523850.544,2.908537806,0.01421594156,0.004815356535,0.04468305409,0.01568512619,-0.002659676131,-0.01064474136,0.003930328414,-0.01329624653,XArbitraryCorrectedZVertical,-0.006779768504,0.003217678517,0.9931923747,0.1162436157,0.014215298,-0.004815337714,-0.9998873472,23.16481209,8.154472351,-1.473693848,2,1523848.799,automotive,0,2018-02-27 16:36:53.524 -0500,null,0,0,0,0,null,1523849.172,0,-0.09512329,100.6584,0.0.0.0,100.83.11.234,1,1,0.52,-3.475834,-38.85627,0
2018-02-27 16:36:56.246 -0500,38,3DCCE5A0-AD64-4006-9610-DD3C35995850,my_iOS_device,1519767411,38.03325792,-78.5144892,173.9707,-1,-1,15.22462273,65,-9999,1519767416,23.84279442,8.537597656,-1.270935059,93.54937744,103.315239,45,1523851.51,0.02310180664,-0.005493164063,-1.001556396,1523851.505,-0.008563660801,-0.007524229028,-0.00528184739,1523850.544,2.908537806,0.01421594156,0.004815356535,0.04468305409,0.01568512619,-0.002659676131,-0.01064474136,0.003930328414,-0.01329624653,XArbitraryCorrectedZVertical,-0.006779768504,0.003217678517,0.9931923747,0.1162436157,0.014215298,-0.004815337714,-0.9998873472,23.16481209,8.154472351,-1.473693848,2,1523848.799,automotive,0,2018-02-27 16:36:53.524 -0500,null,0,0,0,0,null,1523849.172,0,-0.09512329,100.6584,0.0.0.0,100.83.11.234,1,1,0.52,-4.590392,-40.16912,0
2018-02-27 16:36:56.296 -0500,39,3DCCE5A0-AD64-4006-9610-DD3C35995850,my_iOS_device,1519767411,38.03325792,-78.5144892,173.9707,-1,-1,15.22462273,65,-9999,1519767416,23.78227234,8.404167175,-1.819335938,93.5668869,103.3327484,45,1523851.57,0.002029418945,-0.01400756836,-0.9970855713,1523851.54,-0.008524246017,-0.006456567747,-0.01382340395,1523850.544,2.908537806,0.01421594156,0.004815356535,0.04468305409,0.01568512619,-0.002659676131,-0.01064474136,0.003930328414,-0.01329624653,XArbitraryCorrectedZVertical,-0.006779768504,0.003217678517,0.9931923747,0.1162436157,0.014215298,-0.004815337714,-0.9998873472,23.16481209,8.154472351,-1.473693848,2,1523848.799,automotive,0,2018-02-27 16:36:53.524 -0500,null,0,0,0,0,null,1523849.172,0,-0.09512329,100.6584,0.0.0.0,100.83.11.234,1,1,0.52,-5.70495,-37.9463,0
2018-02-27 16:36:56.356 -0500,40,3DCCE5A0-AD64-4006-9610-DD3C35995850,my_iOS_device,1519767411,38.03325792,-78.5144892,173.9707,-1,-1,15.22462273,65,-9999,1519767416,23.82698822,8.217025757,-1.799194336,93.59147644,103.357338,45,1523851.629,0.001434326172,-0.006729125977,-1.001983643,1523851.61,-0.00749946163,-0.007528490086,-0.004219246115,1523850.544,2.908537806,0.01421594156,0.004815356535,0.04468305409,0.01568512619,-0.002659676131,-0.01064474136,0.003930328414,-0.01329624653,XArbitraryCorrectedZVertical,-0.006779768504,0.003217678517,0.9931923747,0.1162436157,0.014215298,-0.004815337714,-0.9998873472,23.16481209,8.154472351,-1.473693848,2,1523848.799,automotive,0,2018-02-27 16:36:53.524 -0500,null,0,0,0,0,null,1523849.172,0,-0.09512329,100.6584,0.0.0.0,100.83.11.234,1,1,0.52,-6.819508,-39.42149,0
2018-02-27 16:36:56.418 -0500,41,3DCCE5A0-AD64-4006-9610-DD3C35995850,my_iOS_device,1519767416,38.03283103,-78.51404406,162.4862,0,138.8671875,24,10,-9999,1519767416,23.69080353,8.457107544,-1.694580078,93.59803009,103.3638916,45,1523851.689,0.003128051758,0.006530761719,-1.011856079,1523851.679,-0.003216033332,-0.006473079346,-0.005308212685,1523850.544,2.908537806,0.01421594156,0.004815356535,0.04468305409,0.01568512619,-0.002659676131,-0.01064474136,0.003930328414,-0.01329624653,XArbitraryCorrectedZVertical,-0.006779768504,0.003217678517,0.9931923747,0.1162436157,0.014215298,-0.004815337714,-0.9998873472,23.16481209,8.154472351,-1.473693848,2,1523848.799,automotive,0,2018-02-27 16:36:53.524 -0500,null,0,0,0,0,null,1523849.172,0,-0.09512329,100.6584,0.0.0.0,100.83.11.234,1,1,0.52,-8.491344,-38.71878,0
2018-02-27 16:36:56.491 -0500,42,3DCCE5A0-AD64-4006-9610-DD3C35995850,my_iOS_device,1519767416,38.03283103,-78.51404406,162.4862,0,138.8671875,24,10,-9999,1519767416,23.7803936,8.768249512,-1.614624023,93.60149384,103.3673553,45,1523851.749,0.01428222656,0.007217407227,-1.016937256,1523851.714,-0.005371063286,-0.007537012201,-0.002094043565,1523850.544,2.908537806,0.01421594156,0.004815356535,0.04468305409,0.01568512619,-0.002659676131,-0.01064474136,0.003930328414,-0.01329624653,XArbitraryCorrectedZVertical,-0.006779768504,0.003217678517,0.9931923747,0.1162436157,0.014215298,-0.004815337714,-0.9998873472,23.16481209,8.154472351,-1.473693848,2,1523848.799,automotive,0,2018-02-27 16:36:53.524 -0500,null,0,0,0,0,null,1523849.172,0,-0.09512329,100.6584,0.0.0.0,100.83.11.234,1,1,0.52,-10.16318,-40.61071,0
2018-02-27 16:36:56.535 -0500,43,3DCCE5A0-AD64-4006-9610-DD3C35995850,my_iOS_device,1519767416,38.03283103,-78.51404406,162.4862,0,138.8671875,24,10,-9999,1519767417,23.77856064,8.126197815,-1.825195313,93.60142517,103.3672867,45,1523851.809,0.02450561523,-0.004272460938,-1.007781982,1523851.751,-0.004271710388,-0.002142246781,-0.003178216445,1523850.544,2.908537806,0.01421594156,0.004815356535,0.04468305409,0.01568512619,-0.002659676131,-0.01064474136,0.003930328414,-0.01329624653,XArbitraryCorrectedZVertical,-0.006779768504,0.003217678517,0.9931923747,0.1162436157,0.014215298,-0.004815337714,-0.9998873472,23.16481209,8.154472351,-1.473693848,2,1523848.799,automotive,0,2018-02-27 16:36:53.524 -0500,null,0,0,0,0,null,1523850.194,0,-0.09512329,100.6584,0.0.0.0,100.83.11.234,1,1,0.52,-11.27774,-37.57445,0
2018-02-27 16:36:56.595 -0500,44,3DCCE5A0-AD64-4006-9610-DD3C35995850,my_iOS_device,1519767416,38.03283103,-78.51404406,162.4862,0,138.8671875,24,10,-9999,1519767417,23.73081589,8.416671753,-1.671386719,93.60468292,103.3705444,45,1523851.868,0.01805114746,-0.01170349121,-0.999206543,1523851.811,-0.005362541171,-0.007540207994,-0.004228833495,1523850.544,2.908537806,0.01421594156,0.004815356535,0.04468305409,0.01568512619,-0.002659676131,-0.01064474136,0.003930328414,-0.01329624653,XArbitraryCorrectedZVertical,-0.006779768504,0.003217678517,0.9931923747,0.1162436157,0.014215298,-0.004815337714,-0.9998873472,23.16481209,8.154472351,-1.473693848,2,1523848.799,automotive,0,2018-02-27 16:36:53.524 -0500,null,0,0,0,0,null,1523850.194,0,-0.09512329,100.6584,0.0.0.0,100.83.11.234,1,1,0.52,-12.94958,-39.76046,0
2018-02-27 16:36:56.714 -0500,45,3DCCE5A0-AD64-4006-9610-DD3C35995850,my_iOS_device,1519767416,38.03283103,-78.51404406,162.4862,0,138.8671875,24,10,-9999,1519767417,24.04674911,8.208312988,-1.655456543,93.60400391,103.3698654,45,1523851.928,-0.00358581543,-0.007537841797,-0.9990081787,1523851.871,-0.008570052388,-0.009686715833,-0.006344448665,1523850.544,2.908537806,0.01421594156,0.004815356535,0.04468305409,0.01568512619,-0.002659676131,-0.01064474136,0.003930328414,-0.01329624653,XArbitraryCorrectedZVertical,-0.006779768504,0.003217678517,0.9931923747,0.1162436157,0.014215298,-0.004815337714,-0.9998873472,23.16481209,8.154472351,-1.473693848,2,1523848.799,automotive,0,2018-02-27 16:36:53.524 -0500,null,0,0,0,0,null,1523850.194,0,-0.09512329,100.6584,0.0.0.0,100.83.11.234,1,1,0.52,-15.73597,-36.65845,0
2018-02-27 16:36:56.718 -0500,46,3DCCE5A0-AD64-4006-9610-DD3C35995850,my_iOS_device,1519767416,38.03283103,-78.51404406,162.4862,0,138.8671875,24,10,-9999,1519767417,24.04674911,8.208312988,-1.655456543,93.60400391,103.3698654,45,1523851.988,-0.002731323242,0.006042480469,-1.008346558,1523851.93,-0.009627859973,-0.00319020067,-0.00101706122,1523850.544,2.908537806,0.01421594156,0.004815356535,0.04468305409,0.01568512619,-0.002659676131,-0.01064474136,0.003930328414,-0.01329624653,XArbitraryCorrectedZVertical,-0.006779768504,0.003217678517,0.9931923747,0.1162436157,0.014215298,-0.004815337714,-0.9998873472,23.16481209,8.154472351,-1.473693848,2,1523851.983,automotive,0,2018-02-27 16:36:56.707 -0500,null,0,0,0,0,null,1523850.194,0,-0.09512329,100.6584,0.0.0.0,100.83.11.234,1,1,0.52,-15.73597,-36.65845,0
2018-02-27 16:36:56.774 -0500,47,3DCCE5A0-AD64-4006-9610-DD3C35995850,my_iOS_device,1519767416,38.03283103,-78.51404406,162.4862,0,138.8671875,24,10,-9999,1519767417,23.69457054,8.341262817,-1.715637207,93.60585785,103.3717194,45,1523852.047,0.01048278809,0.01080322266,-1.01600647,1523851.99,-0.009607619949,4.95E-05,-0.00209164672,1523850.544,2.908537806,0.01421594156,0.004815356535,0.04468305409,0.01568512619,-0.002659676131,-0.01064474136,0.003930328414,-0.01329624653,XArbitraryCorrectedZVertical,-0.006779768504,0.003217678517,0.9931923747,0.1162436157,0.014215298,-0.004815337714,-0.9998873472,23.16481209,8.154472351,-1.473693848,2,1523851.983,automotive,0,2018-02-27 16:36:56.707 -0500,null,0,0,0,0,null,1523850.194,0,-0.09512329,100.6584,0.0.0.0,100.83.11.234,1,1,0.52,-16.85053,-37.82556,0
2018-02-27 16:36:56.833 -0500,48,3DCCE5A0-AD64-4006-9610-DD3C35995850,my_iOS_device,1519767416,38.03283103,-78.51404406,162.4862,0,138.8671875,24,10,-9999,1519767417,23.78902435,8.225349426,-1.821411133,93.60545349,103.371315,45,1523852.107,0.02415466309,0.003692626953,-1.012359619,1523852.05,-0.00748028687,-0.00104102967,-0.00103144229,1523852.096,-0.3459541326,0.01185576159,0.002081138815,-0.002378230449,0.002984232269,-0.002419973258,-0.01312193833,-0.006082314532,-0.004054963589,XArbitraryCorrectedZVertical,0.00204529753,0.005660284776,-0.1721065491,0.9850599766,0.01185545791,-0.002081137383,-0.9999275804,23.78902435,8.225349426,-1.821411133,2,1523851.983,automotive,0,2018-02-27 16:36:56.707 -0500,null,0,0,0,0,null,1523850.194,0,-0.09512329,100.6584,0.0.0.0,100.83.11.234,1,1,0.52,-18.52237,-39.45191,0
2018-02-27 16:36:56.893 -0500,49,3DCCE5A0-AD64-4006-9610-DD3C35995850,my_iOS_device,1519767416,38.03283103,-78.51404406,162.4862,0,138.8671875,24,10,-9999,1519767417,23.68013382,7.925773621,-1.989929199,93.60474396,103.3706055,45,1523852.167,0.02407836914,-0.008453369141,-1.00112915,1523852.109,-0.006434197194,-0.006450708792,-0.00209164672,1523852.165,-0.3459312798,0.01190200154,0.002036516057,-0.002405875362,-0.001332952641,-0.0002778528724,-0.00315841008,-0.01221519429,0.002368509769,XArbitraryCorrectedZVertical,0.00202723383,0.00568692293,-0.1720953882,0.9850617647,0.01190169621,-0.002036514692,-0.9999271035,23.89744377,7.897712708,-1.91809082,2,1523851.983,automotive,0,2018-02-27 16:36:56.707 -0500,null,0,0,0,0,null,1523850.194,0,-0.09512329,100.6584,0.0.0.0,100.83.11.234,1,1,0.52,-19.63692,-40.27548,0
2018-02-27 16:36:56.953 -0500,50,3DCCE5A0-AD64-4006-9610-DD3C35995850,my_iOS_device,1519767416,38.03283103,-78.51404406,162.4862,0,138.8671875,24,10,-9999,1519767417,23.81202126,7.981803894,-1.913269043,93.60461426,103.3704758,45,1523852.226,0.008377075195,-0.01248168945,-0.9969329834,1523852.169,-0.006427805607,-0.008617989287,-0.00635643289,1523852.2,-0.3459403788,0.01189246523,0.002032643995,-0.001341104042,-0.003517760895,-0.000225663418,0.01310173608,-0.006985302083,-0.0004084706306,XArbitraryCorrectedZVertical,0.002024532296,0.005682550371,-0.1720999032,0.9850609303,0.0118921604,-0.002032642486,-0.9999272227,23.81202126,7.981803894,-1.913269043,2,1523851.983,automotive,0,2018-02-27 16:36:56.707 -0500,null,0,0,0,0,null,1523850.194,0,-0.09512329,100.6584,0.0.0.0,100.83.11.234,1,1,0.52,-21.30876,-37.35541,0
2018-02-27 16:36:57.013 -0500,51,3DCCE5A0-AD64-4006-9610-DD3C35995850,my_iOS_device,1519767416,38.03283103,-78.51404406,162.4862,0,138.8671875,24,10,-9999,1519767417,23.74237633,7.986442566,-1.977172852,93.60433197,103.3701935,45,1523852.286,-0.001174926758,-0.003829956055,-1.00328064,1523852.229,-0.007513310067,-0.008605738746,-0.00208205934,1523852.27,-0.3459484226,0.008187739721,0.002003770527,-0.000268755015,-0.005706803873,-0.002331341384,0.01715721563,0.001561264507,-0.009816408157,XArbitraryCorrectedZVertical,0.001691531623,0.003860328812,-0.1721073687,0.9850691557,0.008187632076,-0.002003769157,-0.9999644756,23.69373512,7.863456726,-1.837097168,2,1523851.983,automotive,0,2018-02-27 16:36:56.707 -0500,null,0,0,0,0,null,1523850.194,0,-0.09512329,100.6584,0.0.0.0,100.83.11.234,1,1,0.52,-22.9806,-39.21406,0
2018-02-27 16:36:57.072 -0500,52,3DCCE5A0-AD64-4006-9610-DD3C35995850,my_iOS_device,1519767416,38.03283103,-78.51404406,162.4862,0,138.8671875,24,10,-9999,1519767417,23.80314064,7.92388916,-1.950927734,93.6033783,103.3692398,45,1523852.346,0.004776000977,0.006408691406,-1.014190674,1523852.289,-0.008540224984,-0.001038366509,-0.00316143853,1523852.34,-0.3459479531,0.0100128725,0.002378986537,0.002955416217,-0.001441693399,-0.0002117515542,0.007458636537,0.007200761698,-0.01378583908,XArbitraryCorrectedZVertical,0.002033394761,0.004726978019,-0.1721045524,0.9850652814,0.01001267694,-0.002378984354,-0.9999470711,23.74444389,8.0209198,-1.817810059,2,1523852.307,automotive,2,2018-02-27 16:36:57.031 -0500,null,0,0,0,0,null,1523850.194,0,-0.09512329,100.6584,0.0.0.0,100.83.11.234,1,1,0.52,-24.09515,-40.90823,0
2018-02-27 16:36:57.132 -0500,53,3DCCE5A0-AD64-4006-9610-DD3C35995850,my_iOS_device,1519767417,38.03283103,-78.51404406,166.4154,0,-1,12,10,-9999,1519767417,23.79948616,7.883453369,-1.945251465,93.60361481,103.3694763,45,1523852.405,0.0174407959,0.006317138672,-1.017333984,1523852.348,-0.003208576481,-0.00322855019,-0.00318061329,1523852.374,-0.3459450188,0.0101399144,0.002052365157,0.0008116154931,-0.002519484609,-0.0002012255136,0.01117680874,0.005897578783,-0.008278012276,XArbitraryCorrectedZVertical,0.001883448567,0.004817661364,-0.1721038222,0.9850652814,0.01013971958,-0.002052363707,-0.999946475,23.81885338,7.998924255,-2.041687012,2,1523852.307,automotive,2,2018-02-27 16:36:57.031 -0500,null,0,0,0,0,null,1523850.194,0,-0.09512329,100.6584,0.0.0.0,100.83.11.234,1,1,0.52,-25.76699,-42.543,0
2018-02-27 16:36:57.192 -0500,54,3DCCE5A0-AD64-4006-9610-DD3C35995850,my_iOS_device,1519767417,38.03283103,-78.51404406,166.4154,0,-1,12,10,-9999,1519767417,23.83032036,7.954734802,-1.834960938,93.60481262,103.3706741,45,1523852.465,0.02394104004,-0.00651550293,-1.0050354,1523852.408,-0.005376389609,-0.008617456655,-0.00209164672,1523852.444,-0.3459766128,0.0106781107,0.002311070929,0.002943977714,-0.002565183211,0.0008613017853,0.002490456216,0.01009305101,-0.01289230585,XArbitraryCorrectedZVertical,0.002057261998,0.005060444586,-0.172118172,0.9850611687,0.01067787968,-0.00231106882,-0.9999403358,23.83032036,7.954734802,-1.834960938,2,1523852.307,automotive,2,2018-02-27 16:36:57.031 -0500,null,0,0,0,0,null,1523850.194,0,-0.09512329,100.6584,0.0.0.0,100.83.11.234,1,1,0.52,-26.88155,-39.79443,0
2018-02-27 16:36:57.252 -0500,55,3DCCE5A0-AD64-4006-9610-DD3C35995850,my_iOS_device,1519767417,38.03283103,-78.51404406,166.4154,0,-1,12,10,-9999,1519767417,23.90354729,7.96925354,-1.99810791,93.60446167,103.3703232,45,1523852.525,0.01452636719,-0.01322937012,-0.9984436035,1523852.468,-0.006444849838,-0.008611597701,-0.00208685303,1523852.514,-0.3459810933,0.01112915434,0.002234050887,0.002952964511,0.0006620856002,0.001921375748,-0.004704946652,0.01376969367,-0.01607090235,XArbitraryCorrectedZVertical,0.002058155835,0.005289221648,-0.172120139,0.9850595593,0.01112889685,-0.002234049141,-0.9999355674,23.88751602,8.097015381,-1.93737793,2,1523852.307,automotive,2,2018-02-27 16:36:57.031 -0500,null,0,0,0,0,null,1523850.194,0,-0.09512329,100.6584,0.0.0.0,100.83.11.234,1,1,0.52,-28.55338,-41.47921,0
2018-02-27 16:36:57.311 -0500,56,3DCCE5A0-AD64-4006-9610-DD3C35995850,my_iOS_device,1519767417,38.03283103,-78.51404406,166.4154,0,-1,12,10,-9999,1519767417,23.69784737,8.113059998,-1.77154541,93.60654449,103.372406,45,1523852.585,0.001998901367,-0.00537109375,-1.004638672,1523852.527,-0.009688580046,-0.01723917437,-0.003120692165,1523852.583,-0.3459952014,0.01113757177,0.0022563872,-0.001325900201,-0.002582158893,-0.001254018629,-0.01107627805,0.01081656571,-0.0133549571,XArbitraryCorrectedZVertical,0.002069918672,0.00529143028,-0.1721270084,0.9850583673,0.01113731321,-0.002256385284,-0.9999354482,24.0171814,7.942970276,-1.942871094,2,1523852.307,automotive,2,2018-02-27 16:36:57.031 -0500,null,0,0,0,0,null,1523850.194,0,-0.09512329,100.6584,0.0.0.0,100.83.11.234,1,1,0.52,-29.66794,-38.13596,0
2018-02-27 16:36:57.371 -0500,57,3DCCE5A0-AD64-4006-9610-DD3C35995850,my_iOS_device,1519767417,38.03283103,-78.51404406,166.4154,0,-1,12,10,-9999,1519767417,24.03129005,8.12776947,-2.090820313,93.60736084,103.3732224,45,1523852.644,-0.0008697509766,0.006469726563,-1.011734009,1523852.587,-0.01177117202,-0.005340969566,-0.002070075115,1523852.618,-0.3460127452,0.01112685685,0.00196601544,-0.0002048569731,0.009296175092,-0.000222438015,-0.005206195638,-0.007311329711,-0.001864373684,XArbitraryCorrectedZVertical,0.001926026889,0.005311128218,-0.1721364856,0.9850568771,0.01112660579,-0.001966014272,-0.9999361634,23.82830811,7.767601013,-1.676574707,2,1523852.62,automotive,2,2018-02-27 16:36:57.344 -0500,null,0,0,0,0,null,1523850.194,0,-0.09512329,100.6584,0.0.0.0,100.83.11.234,1,1,0.52,-31.33978,-39.32169,0
2018-02-27 16:36:57.430 -0500,58,3DCCE5A0-AD64-4006-9610-DD3C35995850,my_iOS_device,1519767417,38.03283103,-78.51404406,166.4154,0,-1,12,10,-9999,1519767417,23.86612701,8.191734314,-1.871520996,93.60391998,103.3697815,45,1523852.704,0.01356506348,0.008377075195,-1.014785767,1523852.647,-0.008555138686,-0.003197657521,-0.002089249875,1523852.688,-0.3459726004,0.01103467313,0.00181522475,-0.001297490671,0.004976031836,0.0008667472284,0.001279411837,-0.01168880425,0.002149999142,XArbitraryCorrectedZVertical,0.001843718463,0.005278741475,-0.1721172333,0.985060513,0.01103443094,-0.001815223717,-0.9999374747,23.86612701,8.191734314,-1.871520996,2,1523852.62,automotive,2,2018-02-27 16:36:57.344 -0500,null,0,0,0,0,null,1523850.194,0,-0.09512329,100.6584,0.0.0.0,100.83.11.234,1,1,0.52,-33.01162,-38.14992,0
2018-02-27 16:36:57.490 -0500,59,3DCCE5A0-AD64-4006-9610-DD3C35995850,my_iOS_device,1519767417,38.03283103,-78.51404406,166.4154,0,-1,12,10,-9999,1519767417,23.96084213,7.960151672,-1.980895996,93.60388184,103.3697433,45,1523852.764,0.02354431152,-0.001342773438,-1.005630493,1523852.706,-0.007477091077,-0.002124669918,-0.003163835375,1523852.757,-0.345949016,0.01101106331,0.001804411123,-0.003429094795,0.004992051981,-0.0001987190917,0.00575858634,-0.0106467614,-0.0006268024445,XArbitraryCorrectedZVertical,0.001836298499,0.005268065259,-0.17210567,0.9850625992,0.01101082284,-0.001804410131,-0.9999377728,23.96084213,7.960151672,-1.980895996,2,1523852.62,automotive,2,2018-02-27 16:36:57.344 -0500,null,0,0,0,0,null,1523850.194,0,-0.09512329,100.6584,0.0.0.0,100.83.11.234,1,1,0.52,-34.12617,-39.26604,0
2018-02-27 16:36:57.550 -0500,60,3DCCE5A0-AD64-4006-9610-DD3C35995850,my_iOS_device,1519767417,38.03283103,-78.51404406,166.4154,0,-1,12,10,-9999,1519767418,24.0293026,7.874938965,-1.897827148,93.60293579,103.3687973,45,1523852.823,0.01599121094,-0.01153564453,-0.9991455078,1523852.766,-0.007503722687,-0.007526892189,-0.00315185115,1523852.792,-0.3459455848,0.01117204505,0.001793199122,-0.005596146919,-0.0003952016123,0.0008889914025,-0.002382731996,-0.01003236324,0.003094553947,XArbitraryCorrectedZVertical,0.00184461975,0.005348321516,-0.172103852,0.9850625396,0.0111717945,-0.001793198171,-0.9999359846,24.0293026,7.874938965,-1.897827148,2,1523852.62,automotive,2,2018-02-27 16:36:57.344 -0500,null,0,0,0,0,null,1523850.348,0,-0.08719635,100.6583,0.0.0.0,100.83.11.234,1,1,0.52,-35.79801,-40.66045,0
2018-02-27 16:36:57.610 -0500,61,3DCCE5A0-AD64-4006-9610-DD3C35995850,my_iOS_device,1519767417,38.03283103,-78.51404406,166.4154,0,-1,12,10,-9999,1519767418,23.75893402,7.763267517,-1.975097656,93.60202789,103.3678894,45,1523852.883,0.0001831054688,-0.009429931641,-1.000213623,1523852.826,-0.007501592159,-0.005362807487,-0.00102185491,1523852.862,-0.34588052,0.01122118341,0.001834159882,-0.001332437154,-0.003657057416,0.0008703914937,0.007593157701,-0.007733101957,0.002758264542,XArbitraryCorrectedZVertical,0.001868848107,0.005369059741,-0.1720716506,0.9850679636,0.01122092921,-0.001834158902,-0.9999353886,23.85890388,7.942581177,-2.04309082,2,1523852.62,automotive,2,2018-02-27 16:36:57.344 -0500,null,0,0,0,0,null,1523850.348,0,-0.08719635,100.6583,0.0.0.0,100.83.11.234,1,1,0.52,-36.61316,-42.19487,0
2018-02-27 16:36:57.669 -0500,62,3DCCE5A0-AD64-4006-9610-DD3C35995850,my_iOS_device,1519767417,38.03283103,-78.51404406,166.4154,0,-1,12,10,-9999,1519767418,23.74026489,7.860733032,-1.897949219,93.60142517,103.3672867,45,1523852.943,0.002532958984,0.001434326172,-1.009857178,1523852.885,-0.01066755806,5.22E-05,-0.00422164296,1523852.932,-0.3459165856,0.01115219933,0.00184571706,-0.0002483730204,-0.004751274828,-0.003407538868,0.01252969075,-0.003647448029,-0.002947807312,XArbitraryCorrectedZVertical,0.001868701074,0.00533405412,-0.1720894277,0.9850651622,0.01115194894,-0.001845716033,-0.9999361038,23.74026489,7.860733032,-1.897949219,2,1523852.62,automotive,2,2018-02-27 16:36:57.344 -0500,null,0,0,0,0,null,1523850.348,0,-0.08719635,100.6583,0.0.0.0,100.83.11.234,1,1,0.52,-32.9017,-44.25908,0
2018-02-27 16:36:57.729 -0500,63,3DCCE5A0-AD64-4006-9610-DD3C35995850,my_iOS_device,1519767417,38.03283103,-78.51404406,166.4154,0,-1,12,10,-9999,1519767418,23.81587219,7.983726501,-1.984802246,93.60111237,103.3669739,45,1523853.002,0.006591796875,0.008346557617,-1.01600647,1523852.945,-0.008547681835,4.69E-05,3.83E-05,1523853.001,-0.3459159851,0.01107367801,0.001834626241,0.002993457019,0.003883985803,-0.00024891668,0.03023210913,0.002383941552,-0.01237684488,XArbitraryCorrectedZVertical,0.001856480842,0.00529633509,-0.1720892489,0.985065341,0.01107343286,-0.001834625262,-0.9999369979,23.81587219,7.983726501,-1.984802246,2,1523852.62,automotive,2,2018-02-27 16:36:57.344 -0500,null,0,0,0,0,null,1523850.348,0,-0.08719635,100.6583,0.0.0.0,100.83.11.234,1,1,0.52,-30.87232,-34.6479,0
2018-02-27 16:36:57.789 -0500,64,3DCCE5A0-AD64-4006-9610-DD3C35995850,my_iOS_device,1519767417,38.03283103,-78.51404406,166.4154,0,-1,12,10,-9999,1519767418,23.71967697,8.02481842,-1.822570801,93.60329437,103.3691559,45,1523853.062,0.03662109375,0.002349853516,-1.008239746,1523853.005,-0.006386260294,0.007603058596,0.00321416912,1523853.036,-0.3459717867,0.01109205048,0.001967339998,0.0008374731988,-0.003673417494,-0.004494631663,-0.03390369192,0.009138969705,-0.01675659418,XArbitraryCorrectedZVertical,0.001923575066,0.005293910392,-0.1721163392,0.985060513,0.01109180134,-0.001967338845,-0.9999365211,23.71967697,8.02481842,-1.822570801,2,1523852.62,automotive,2,2018-02-27 16:36:57.344 -0500,null,0,0,0,0,null,1523850.348,0,-0.08719635,100.6583,0.0.0.0,100.83.11.234,1,1,0.52,-22.56703,-28.0797,0
2018-02-27 16:36:57.848 -0500,65,3DCCE5A0-AD64-4006-9610-DD3C35995850,my_iOS_device,1519767417,38.03283103,-78.51404406,166.4154,0,-1,12,10,-9999,1519767418,23.89694595,7.741477966,-1.785400391,93.60848236,103.3743439,45,1523853.122,0.04431152344,-0.008895874023,-0.9975128174,1523853.065,-0.005305016891,0.003262638651,-0.00532019691,1523853.106,-0.3460629796,0.01166319435,0.001947335414,0.001958416775,0.01145672239,0.001868870808,-0.03268951923,0.007791450247,-0.0140927434,XArbitraryCorrectedZVertical,0.001963128103,0.005576848052,-0.1721607596,0.9850510955,0.0116629079,-0.001947334153,-0.9999300838,23.84923363,7.963050842,-1.973144531,2,1523852.62,automotive,2,2018-02-27 16:36:57.344 -0500,null,0,0,0,0,null,1523850.348,0,-0.08719635,100.6583,0.0.0.0,100.83.11.234,1,1,0.52,-22.56703,-29.1456,0
2018-02-27 16:36:57.908 -0500,66,3DCCE5A0-AD64-4006-9610-DD3C35995850,my_iOS_device,1519767417,38.03283103,-78.51404406,166.4154,0,-1,12,10,-9999,1519767418,23.8176403,7.888961792,-1.94744873,93.61037445,103.376236,45,1523853.181,0.02360534668,-0.007583618164,-0.9960327148,1523853.124,-0.007530354298,-0.01292911446,-0.003139866925,1523853.175,-0.3460629001,0.01148800794,0.001906448091,0.0008392366581,-0.0004233373329,0.000830308767,0.001390683465,0.003600172698,-0.008643269539,XArbitraryCorrectedZVertical,0.001927909791,0.005494084209,-0.1721610129,0.9850515723,0.0114877345,-0.00190644688,-0.9999321699,23.74453926,7.945205688,-1.915405273,2,1523852.62,automotive,2,2018-02-27 16:36:57.344 -0500,null,0,0,0,0,null,1523850.348,0,-0.08719635,100.6583,0.0.0.0,100.83.11.234,1,1,0.52,-22.56703,-30.33482,0
2018-02-27 16:36:57.968 -0500,67,3DCCE5A0-AD64-4006-9610-DD3C35995850,my_iOS_device,1519767417,38.03283103,-78.51404406,166.4154,0,-1,12,10,-9999,1519767418,23.86312675,7.949432373,-1.923034668,93.61171722,103.3775787,45,1523853.241,0.01142883301,0.0002288818359,-1.011672974,1523853.184,-0.01072614761,-0.01183269104,-0.004195277665,1523853.21,-0.3460659415,0.01148333022,0.001961378799,0.0008114730008,-0.007990118116,-0.001287225867,-0.002617700025,0.00911774952,-0.01152718067,XArbitraryCorrectedZVertical,0.00195457018,0.005487048533,-0.172162354,0.9850513339,0.01148305554,-0.001961377449,-0.9999321699,23.90172768,8.126525879,-1.754150391,2,1523852.62,automotive,2,2018-02-27 16:36:57.344 -0500,null,0,0,0,0,null,1523850.348,0,-0.08719635,100.6583,0.0.0.0,100.83.11.234,1,1,0.52,-120,-120,0
2018-02-27 16:36:58.027 -0500,68,3DCCE5A0-AD64-4006-9610-DD3C35995850,my_iOS_device,1519767417,38.03283103,-78.51404406,166.4154,0,-1,12,10,-9999,1519767418,23.76533127,7.903533936,-2.110168457,93.62475586,103.3906174,45,1523853.301,-0.007629394531,-0.0002899169922,-1.01171875,1523853.244,-0.007507983745,-0.007525294292,-0.002084456185,1523853.28,-0.3462460981,0.01133473822,0.001812392487,-0.008482439443,0.04823125154,-0.01204609871,-0.02683740668,0.002956800628,-0.006962835789,XArbitraryCorrectedZVertical,0.001868888852,0.005426520947,-0.1722516716,0.9850361347,0.01133447699,-0.001812391449,-0.9999341369,23.87805557,7.812904358,-1.94519043,2,1523852.62,automotive,2,2018-02-27 16:36:57.344 -0500,null,0,0,0,0,null,1523850.348,0,-0.08719635,100.6583,0.0.0.0,100.83.11.234,1,1,0.52,-120,-120,0
2018-02-27 16:36:58.125 -0500,69,3DCCE5A0-AD64-4006-9610-DD3C35995850,my_iOS_device,1519767418,38.03283103,-78.51404406,164.079,0,-1,12,10,-9999,1519767418,23.98238182,8.250587463,-1.684875488,93.63700104,103.4028625,45,1523853.361,0.08866882324,0.006149291992,-1.000701904,1523853.303,-0.000124635939,-0.03134407445,-0.00740225625,1523853.384,-0.3466681142,0.01054630764,0.001817769908,0.003023100551,0.006044971757,-0.002400722122,0.01576005667,-0.008283548988,0.00117868185,XArbitraryCorrectedZVertical,0.001804695581,0.005037359893,-0.1724602133,0.9850019217,0.01054609474,-0.001817768905,-0.9999427199,24.08216667,9.05304718,-1.139221191,2,1523852.62,automotive,2,2018-02-27 16:36:57.344 -0500,null,0,0,0,0,null,1523850.348,0,-0.08719635,100.6583,0.0.0.0,100.83.11.234,1,1,0.52,-120,-120,0
2018-02-27 16:36:58.150 -0500,70,3DCCE5A0-AD64-4006-9610-DD3C35995850,my_iOS_device,1519767418,38.03283103,-78.51404406,164.079,0,-1,12,10,-9999,1519767418,23.86919785,9.029769897,-0.8935546875,93.63947296,103.4053345,45,1523853.42,-0.0007629394531,-0.007369995117,-1.002029419,1523853.363,-0.007726362955,-0.05615328422,-0.007313572986,1523853.419,-0.3465636141,0.01045919124,0.001906973282,-0.007569515612,0.02988171205,0.004000938032,0.004174197093,-0.005630869418,-0.002040147781,XArbitraryCorrectedZVertical,0.00184085581,0.004986858927,-0.1724085957,0.9850111008,0.01045898162,-0.001906972146,-0.9999434948,23.86919785,9.029769897,-0.8935546875,2,1523852.62,automotive,2,2018-02-27 16:36:57.344 -0500,null,0,0,0,0,null,1523850.348,0,-0.08719635,100.6583,0.0.0.0,100.83.11.234,1,1,0.52,-120,-120,0
2018-02-27 16:36:58.206 -0500,71,3DCCE5A0-AD64-4006-9610-DD3C35995850,my_iOS_device,1519767418,38.03283103,-78.51404406,164.079,0,-1,12,10,-9999,1519767418,23.97191238,8.786468506,-1.14239502,93.63829803,103.4041595,45,1523853.48,-0.01066589355,-0.009796142578,-0.9933166504,1523853.423,-0.007468568961,0.002201901589,2.88E-05,1523853.454,-0.3465606516,0.01031770151,0.001883690213,-0.003400614019,0.005002411548,-0.0002339717466,-0.005358394235,-0.005150612444,-0.001855552197,XArbitraryCorrectedZVertical,0.0018171845,0.004919184372,-0.1724073291,0.9850116968,0.01031749975,-0.001883689081,-0.9999449849,23.94007874,9.087608337,-1.257080078,2,1523852.62,automotive,2,2018-02-27 16:36:57.344 -0500,null,0,0,0,0,null,1523850.348,0,-0.08719635,100.6583,0.0.0.0,100.83.11.234,1,1,0.52,-120,-120,0
